name,lat,lon,grupo,authority,betweenness,eigen,hub,pagerank,subgraph,degree
01DES0001O,21.88179,-102.30821,3,9.804897755679518e-9,457285,9.80489739945176e-9,9.804897755679518e-9,1.1125041556288182e-4,9857026.00603861,25
01DES0002N,22.00075,-102.20304,3,8.447209991353413e-11,119459,8.44720450598055e-11,8.447209991353413e-11,7.151713377734745e-5,28002.67841721327,4
01DES0003M,22.22665,-102.32292,3,1.2476030208491093e-9,168110,1.2476029603698058e-9,1.2476030208491093e-9,2.1243436423492193e-4,281.6120174845463,8
01DES0004L,21.84393,-102.71721,3,6.283939599510553e-11,40329,6.283920096676133e-11,6.283939599510553e-11,2.0994552904204483e-4,14.834603419584948,7
01DES0006J,21.90967,-102.31829,3,8.382030626318133e-10,133,8.38202820172502e-10,8.382030626318133e-10,7.11607115068191e-5,3119117.30422773,13
01DES0007I,21.8511,-102.32341,3,2.966379846683392e-9,0,2.9663796046158346e-9,2.966379846683392e-9,5.704439882024419e-5,1701413.0617192509,9
01DES0008H,21.90031,-102.30981,3,2.4940621561327913e-9,248079.5,2.4940615523927945e-9,2.4940621561327913e-9,1.7086119794197584e-4,17517575.000964362,39
01DES0009G,21.86989,-102.3065,3,1.8246239365417275e-9,23257,1.8246236886987191e-9,1.8246239365417275e-9,6.645857817605855e-5,2754165.8833033303,15
01DES0010W,21.90334,-102.28497,3,7.275113636958423e-9,140478.25,7.275113154025774e-9,7.275113636958423e-9,1.199889140301025e-4,11622513.274366044,26
01DES0011V,21.86404,-102.28242,3,7.714202281544182e-9,23854,7.714201927184535e-9,7.714202281544182e-9,1.0015812549844124e-4,11384587.679366365,24
01DES0012U,21.87171,-102.67651,3,8.046356345627939e-10,48469,8.046355622381693e-10,8.046356345627939e-10,1.5001667735268509e-4,294.59211518876594,7
01DES0013T,21.84338,-102.18992,3,5.885109772057372e-10,10894,5.885108283819379e-10,5.885109772057372e-10,1.0240345098255938e-4,337193.95513214666,6
01DES0016Q,21.87769,-102.2667,3,1.8111645294625238e-9,141588,1.8111641608376233e-9,1.8111645294625238e-9,9.065785447145656e-5,9409154.783584919,23
01DES0017P,21.86804,-102.26917,3,2.5852727785305055e-9,614,2.5852723692634744e-9,2.5852727785305055e-9,1.0364411952096543e-4,5843599.81987201,17
01DES0018O,21.99949,-102.29137,3,1.045662165958483e-9,0,1.0456620222156798e-9,1.045662165958483e-9,9.270802799314393e-5,562475.18168182,10
01DES0019N,21.89816,-102.27434,3,1.9562074207826583e-9,129646,1.9562070934134707e-9,1.9562074207826583e-9,8.41681772040917e-5,8864550.693982618,23
01DES0020C,22.34678,-102.2323,3,7.637387602977035e-11,0,7.637379311581481e-11,7.637387602977035e-11,3.7267927704023065e-05,96.27009147698558,1
01DES0021B,21.85903,-102.26586,3,8.588105326657772e-9,126288,8.588104856311999e-9,8.588105326657772e-9,1.2949748592945258e-4,12155124.110480795,28
01DES0022A,21.86867,-102.29129,3,7.0390913929373975e-9,10280,7.039090965721815e-9,7.0390913929373975e-9,1.0318919418084479e-4,8757647.042404167,23
01DES0023Z,21.88575,-102.26429,3,1.4542880452512427e-9,46245.5,1.4542877027393166e-9,1.4542880452512427e-9,1.0303237823549949e-4,10218808.085989453,24
01DES0024Z,21.91099,-102.30954,3,1.2180754909114027e-9,98615,1.2180751037305288e-9,1.2180754909114027e-9,1.1538897662069782e-4,4387521.200885428,22
01DES0025Y,21.93642,-102.28209,3,1.4639043887933308e-8,13871.75,1.4639042603086437e-8,1.4639043887933308e-8,1.752191976097434e-4,6372157.179555865,21
01DES0026X,21.88843,-102.25779,3,6.353419537675659e-9,27177.5,6.353419202862525e-9,6.353419537675659e-9,8.32971761472539e-5,7613987.3240877045,18
01DES0027W,21.89443,-102.29707,3,2.177936298593751e-9,195242.75,2.1779358526104e-9,2.177936298593751e-9,1.233124049314439e-4,10474135.948819116,27
01DES0028V,21.84678,-102.34252,3,9.593998213619285e-9,10881,9.593998128162273e-9,9.593998213619285e-9,6.858856553335435e-5,467194.6253925869,6
01DES0029U,21.89502,-102.25524,3,2.16164992694913e-9,54796.75,2.16164954108329e-9,2.16164992694913e-9,1.2286504223293928e-4,6107670.106763867,20
01DES0030J,21.84273,-102.30444,3,4.453875398359756e-8,2,4.453875389450368e-8,4.453875398359756e-8,4.77204746867227e-5,249172.01452551672,5
01DES0031I,21.8464,-102.25272,3,1.076571606245878e-8,0,1.0765715762664064e-8,1.076571606245878e-8,7.475881960540994e-5,3797197.9654718623,13
01DES0032H,21.91355,-102.25362,3,2.463688582062453e-9,10892,2.463688299614199e-9,2.463688582062453e-9,9.928266436373075e-5,4066716.9927052846,16
01DES0033G,21.88522,-102.27798,3,9.51705048693723e-10,468,9.517047798213639e-10,9.51705048693723e-10,6.55529453172379e-5,1116275.0240481517,9
01DES0034F,21.84267,-102.26001,3,1.164898315110253e-8,1,1.1648982789309619e-8,1.164898315110253e-8,1.2142979356579514e-4,4565121.50979661,16
01DES0035E,21.93147,-102.25857,3,3.3687921143901176e-9,74779.75,3.3687915230031194e-9,3.3687921143901176e-9,1.7841948312150068e-4,13280392.944655515,30
01DES0036D,21.96675,-102.30075,3,1.880077883260972e-9,752602,1.880077635904604e-9,1.880077883260972e-9,1.1122411557604706e-4,826870.6222076396,13
01DES0037C,21.8474,-102.71571,3,2.2360278336367613e-11,0,2.2360196921346806e-11,2.2360278336367613e-11,7.741465317275753e-5,3.5866080306626866,2
01DES0038B,21.88749,-102.2808,3,7.03435734353674e-10,0,7.034355450109942e-10,7.03435734353674e-10,4.275009457207779e-5,104606.38357920694,2
01DST0001G,21.8966,-102.30778,3,7.808703258610425e-10,42664,7.808700303586555e-10,7.808703258610425e-10,7.138872677227289e-5,2484287.7878232948,15
01DST0002F,21.8806,-102.31683,3,7.478355068971905e-10,0,7.478353360711788e-10,7.478355068971905e-10,4.1939255628945264e-5,977494.1386238583,6
01DST0003E,22.14706,-102.28178,3,1.812008383947707e-8,46311,1.812008371949645e-8,1.812008383947707e-8,1.0715456973720884e-4,47507.09261056762,9
01DST0004D,21.91931,-101.96873,3,6.777659518395599e-12,43518,6.777647157065084e-12,6.777659518395599e-12,1.5581714909986049e-4,8.990315139573308,5
01DST0005C,21.87569,-102.30084,3,6.594665882857838e-9,98549,6.5946653966464275e-9,6.594665882857838e-9,1.5452182531540388e-4,15131569.091660764,36
01DST0006B,22.15182,-102.41535,3,1.507673792626458e-9,10889,1.507673676741988e-9,1.507673792626458e-9,1.009659163945831e-4,569.4745741091926,5
01DST0008Z,22.19034,-102.0207,3,6.4596742519602e-11,21754,6.459669277598625e-11,6.4596742519602e-11,7.977854805694943e-5,27159.126837994936,3
01DST0009Z,22.36642,-102.29668,3,4.6001086119634403e-10,32640,4.6001050679190515e-10,4.6001086119634403e-10,1.8495009899515192e-4,35945.235258900786,5
01DST0010O,21.95519,-102.34679,3,2.8848177414903783e-9,22882,2.8848173766895627e-9,2.8848177414903783e-9,1.251019547425907e-4,1364995.5431488997,14
01DST0011N,22.08072,-102.27199,3,1.1192179893021414e-9,86566,1.1192178500665108e-9,1.1192179893021414e-9,1.4743926240135116e-4,266831.4110872319,10
01DST0012M,22.09787,-102.0664,3,4.584534320821013e-13,0,4.584436526559804e-13,4.584534320821013e-13,3.825805809762107e-5,1.8818638330866206,1
01DST0013L,21.76481,-102.37301,3,1.5302920841635427e-9,0,1.5302920391523242e-9,1.5302920841635427e-9,4.404850317880631e-5,12472.057890987066,2
01DST0014K,22.22742,-102.24601,3,8.092411287919727e-14,43518,8.071890505659043e-14,8.092411287919727e-14,2.2134418639500238e-4,4.79275738563603,5
01DST0015J,22.03688,-101.88813,3,6.920240030790582e-10,76131,6.920237230070227e-10,6.920240030790582e-10,1.6791744431185961e-4,32973.05867452907,4
01DST0018G,22.28727,-102.23587,3,1.8423032447256905e-11,0,1.842300426818248e-11,1.8423032447256905e-11,7.849808379423925e-5,2.5022536989680066,2
01DST0020V,21.89493,-102.32222,3,1.3113634166291344e-9,155480.5,1.3113630391311384e-9,1.3113634166291344e-9,1.1345812839200091e-4,4443823.750741551,24
01DST0021U,21.84874,-102.31188,3,2.931823836318058e-8,687.25,2.9318238143476275e-8,2.931823836318058e-8,7.998538619902143e-5,1689039.9818451584,12
01DST0022T,21.88881,-102.27629,3,2.6243182651527752e-9,664511,2.624317741699441e-9,2.6243182651527752e-9,1.3384887440921384e-4,16567866.319127345,32
01DST0023S,22.14087,-102.27632,3,2.885354429620013e-9,32159,2.88535432414297e-9,2.885354429620013e-9,1.0052894557979271e-4,1586.3916806147063,5
01DST0024R,21.84989,-102.29833000000001,3,6.793546805276127e-7,361180,6.793546803380265e-7,6.793546805276127e-7,9.593126660948598e-5,6011361.100638965,23
01DST0028N,21.96988,-102.35117,3,7.337976044479069e-10,0,7.337974091569939e-10,7.337976044479069e-10,7.206541912289632e-5,260805.17910037105,7
01DST0029M,21.88027,-102.25588,3,1.576481595945299e-9,961,1.5764812877350394e-9,1.576481595945299e-9,7.666345252663789e-5,2672643.995235925,12
01DST0030B,21.72524,-102.27716,3,6.208853235534746e-9,0,6.208853101315905e-9,6.208853235534746e-9,9.00212311556709e-5,222172.4369882985,5
01DST0031A,21.85601,-102.31132,3,3.45299618682982e-8,15126.5,3.4529961640717284e-8,3.45299618682982e-8,8.024568437649222e-5,2911157.26003606,14
01DST0032Z,21.88058,-102.46614,3,7.591526099585732e-17,1,3.1077475342086584e-18,7.591526099585732e-17,1.191006577003865e-4,2.178183556608575,2
01DST0034Y,21.86002,-102.31002,3,1.6737935460184163e-08,33317.25,1.6737935134256916e-8,1.6737935460184163e-08,1.2117003840738214e-4,7349831.472448058,24
01DST0035X,21.85792,-102.25344,3,2.863584137615821e-9,35310.5,2.863583795066884e-9,2.863584137615821e-9,9.058741238333183e-5,7410171.488252191,20
01DST0036W,21.88267,-102.24783,3,1.044287456500557e-8,72578,1.0442874178416157e-8,1.044287456500557e-8,1.2344526624368662e-4,12193431.30139367,28
01DST0037V,21.91807,-102.26383,3,7.2361998899864835e-9,17692.25,7.23619956115674e-9,7.2361998899864835e-9,1.0599156442512167e-4,5603759.227376011,19
01DST0038U,21.86767,-102.23711,3,8.96396895761481e-9,80929,8.96396841129535e-9,8.96396895761481e-9,2.0780985808414794e-4,9577543.796566898,27
01DST0039T,21.95426,-102.32991,3,7.67542654381029e-9,19979,7.675426075595779e-9,7.67542654381029e-9,1.6133926206576756e-4,1786941.7323021905,15
01DST0041H,21.90994,-102.24054,3,4.061607941553274e-10,0,4.061606526623342e-10,4.061607941553274e-10,7.644485142213901e-5,620350.9065187878,7
01DTV0002T,21.96257,-102.2675,3,5.165254864471621e-10,0,5.165253603716569e-10,5.165254864471621e-10,6.330154664274154e-5,143286.37707424097,4
01DTV0004R,22.03386,-102.25912,3,4.57285812739805e-12,0,4.5728343575172806e-12,4.57285812739805e-12,3.765278081169882e-5,3.025861988017262,1
01DTV0010B,22.23566,-102.01965,3,2.894846929100884e-12,2,2.894827825140852e-12,2.894846929100884e-12,6.958128592631112e-5,74.16366307147428,2
01DTV0012Z,22.04354,-102.11008,3,4.7862358002413594e-12,10881,4.786202211313711e-12,4.7862358002413594e-12,1.2243368078722664e-4,85.90292433113598,3
01DTV0013Z,22.28721,-102.0418,3,7.599779648793037e-14,0,7.58702468930284e-14,7.599779648793037e-14,7.559670896871678e-5,1.9128515705100508,1
01DTV0018U,21.97712,-102.31618,3,1.5522012470924648e-10,10881,1.5522007303701917e-10,1.5522012470924648e-10,7.293362023165293e-5,9734.911109264662,3
01DTV0019T,21.94109,-102.29725,3,1.8093768823519212e-9,1738,1.8093767678500417e-9,1.8093768823519212e-9,8.624583994282657e-5,207632.67095562324,7
01DTV0020I,22.02724,-102.31425,3,3.6723895328766065e-11,21761,3.6723803602849665e-11,3.6723895328766065e-11,1.4676379824542923e-4,483.32560000134436,4
01DTV0022G,22.11514,-102.33781,3,6.971415392695319e-10,0,6.971413719737664e-10,6.971415392695319e-10,8.756244189683417e-5,2.2475879386998168,1
01DTV0023F,22.14333,-102.32944,3,1.3996615189045701e-9,10881,1.3996612625464215e-9,1.3996615189045701e-9,1.5645327621611625e-4,180.0961556955702,4
01DTV0034L,21.8931,-102.33915,3,5.480860395177582e-10,10881,5.480859731823619e-10,5.480860395177582e-10,8.267938117733565e-5,36745.26610298766,4
01DTV0042U,22.15966,-102.19741,3,3.617204782407503e-17,0,0,3.617204782407503e-17,8.160600620213629e-5,1.5430806348152268,1
01DTV0049N,21.80004,-102.27524,3,7.115758722322769e-10,10881,7.115758207411386e-10,7.115758722322769e-10,9.580869298770411e-5,73659.11134732775,4
01DTV0054Z,22.10191,-102.17923,3,3.063042912964857e-16,0,0,3.063042912964857e-16,7.23573254991804e-5,2.7082716604245354,2
01DTV0060J,21.75257,-102.29707,3,2.0942369467594516e-9,0,2.094236880088602e-9,2.0942369467594516e-9,1.0408916477004223e-4,2229.40682895175,3
01DTV0066D,22.00122,-102.32678,3,1.6790008340322836e-10,3,1.6790001463006717e-10,1.6790008340322836e-10,5.528535812670508e-5,28524.966300587064,5
01DTV0069A,22.26941,-102.0299,3,5.526276289276245e-15,0,5.478122928339774e-15,5.526276289276245e-15,4.2269790602875205e-5,1.853178118645922,1
01DTV0076K,21.81301,-102.08237,3,1.2076911652025974e-17,0,1.840209828824972e-18,1.2076911652025974e-17,8.160600620213629e-5,1.5430806348152393,1
01DTV0083U,22.28483,-102.25021,3,4.539552348745334e-11,76125,4.539549588593698e-11,4.539552348745334e-11,1.0917951398228579e-4,4.706126701750064,3
01DTV0084T,22.06539,-102.17468,3,3.063042912964857e-16,0,0,3.063042912964857e-16,7.235732549915359e-5,2.7082716604245145,2
01DTV0126B,21.86288,-102.69524,3,8.829596890835629e-11,0,8.829592712287932e-11,8.829596890835629e-11,7.940247617523159e-5,7.503090377147675,3
01DTV0146P,21.98123,-102.25004,3,6.476642719922685e-12,76014,6.476629137904062e-12,6.476642719922685e-12,3.747487870360399e-5,76.80272496768167,2
01DTV0155X,22.25896,-102.24865,3,5.7424608023408725e-12,65256,5.742441071566379e-12,5.7424608023408725e-12,7.242301279072183e-5,2.3585225883543828,2
01DTV0185R,21.92148,-102.23968,3,5.584123495092589e-11,10908,5.58411729438103e-11,5.584123495092589e-11,9.042394947181673e-5,75666.94141890289,4
01PES0002S,21.88303,-102.31332,3,5.019799151879794e-10,75978.5,5.019793314982149e-10,5.019799151879794e-10,2.2183131792103775e-4,559644.3017947131,19
01PES0003R,21.87697,-102.26626,3,5.337196369782466e-11,0,5.3371873073514734e-11,5.337196369782466e-11,2.874354003503888e-5,38307.488185647584,3
01PES0004Q,21.88698,-102.26091,3,8.326185742066488e-11,0,8.32617465632775e-11,8.326185742066488e-11,4.4991625283757873e-5,3259.628909379488,2
01PES0006O,21.87917,-102.30293,3,8.169427056739288e-10,0,8.16942427860813e-10,8.169427056739288e-10,7.568861544609872e-5,970693.7911061374,11
01PES0008M,21.91497,-102.27458,3,9.137736211982286e-11,2,9.13772409750063e-11,9.137736211982286e-11,8.308303005834927e-5,2452.033670866062,3
01PES0009L,21.88386,-102.29276,3,2.3212671897948163e-10,0,2.3212646129902848e-10,2.3212671897948163e-10,8.253828906665309e-5,393917.2774816875,9
01PES0010A,21.86887,-102.32922,3,7.11126961034659e-10,22603,7.111266155994586e-10,7.11126961034659e-10,1.247100460709156e-4,1128349.7870989165,17
01PES0011Z,21.8878,-102.28855,3,2.6642923722395536e-11,0,2.6642841099206352e-11,2.6642923722395536e-11,3.591314886388561e-5,1728.5211904797484,1
01PES0020H,21.90116,-102.29783,3,2.407108355307533e-10,10902,2.407105720489413e-10,2.407108355307533e-10,1.1396852840090482e-4,654851.4508396878,13
01PES0022F,21.96201,-102.32012,3,8.94701278991985e-12,0,8.946934309909263e-12,8.94701278991985e-12,4.5537727104152374e-5,25.521547472380853,1
01PES0024D,21.92959,-102.30728,3,1.641339038422986e-10,2849,1.6413346854901644e-10,1.641339038422986e-10,1.7141512617913776e-4,218959.2838767356,14
01PES0027A,21.88016,-102.3007,3,8.318615494416253e-10,0,8.318613335499269e-10,8.318615494416253e-10,5.921075107014066e-5,91786.73298271516,4
01PES0029Z,21.96473,-102.34355,3,3.709733141003107e-10,32637,3.709731798436921e-10,3.709733141003107e-10,8.16078210048709e-5,64571.78245782786,7
01PES0030O,21.88153,-102.30197,3,2.1738883291705064e-10,0,2.1738864328836683e-10,2.1738883291705064e-10,5.6181477969415806e-5,342374.1351649951,7
01PES0031N,21.92508,-102.30315,3,1.4480746353006057e-10,10893,1.448072204205131e-10,1.4480746353006057e-10,8.441201382426456e-5,221435.28119681694,11
01PES0033L,21.89526,-102.27726,3,5.501239934705393e-10,0,5.501238533933588e-10,5.501239934705393e-10,4.555481782747652e-5,734988.6419170841,6
01PES0034K,21.92898,-102.30704,3,3.4157899100135044e-11,0,3.415777683989198e-11,3.4157899100135044e-11,4.658045635055781e-5,2601.4905216566326,2
01PES0035J,21.90549,-102.30823,3,2.4734131882572756e-10,21486,2.4734106789265927e-10,2.4734131882572756e-10,1.2995647924937567e-4,274775.3343661434,9
01PES0037H,21.87782,-102.26555,3,1.1566818054184992e-10,0,1.156679289191196e-10,1.1566818054184992e-10,6.707746274892651e-5,10075.755310380586,3
01PES0039F,21.8718,-102.3055,3,2.400599197623437e-11,0,2.4005961590422226e-11,2.400599197623437e-11,4.414369279252542e-5,633.7663288783701,1
01PES0041U,21.93067,-102.30156,3,7.601441934898651e-11,16767,7.601414328525261e-11,7.601441934898651e-11,1.0206850469152201e-4,14566.290668716518,7
01PES0045Q,21.85279,-102.27153,3,1.0464785367926212e-9,10880,1.0464783998013722e-9,1.0464785367926212e-9,5.5820142822809234e-5,252225.76449280846,6
01PES0046P,21.85976,-102.29499,3,7.54145291984833e-10,12929,7.541447932924279e-10,7.54145291984833e-10,1.7396850093750663e-4,2222024.66555818,21
01PES0050B,21.91317,-102.32995,3,1.7560633657878288e-10,59191,1.7560611880991585e-10,1.7560633657878288e-10,6.682200537406409e-5,366222.0545040436,10
01PES0056W,21.89633,-102.25292,3,1.2007936991152047e-9,5401,1.2007933697542426e-9,1.2007936991152047e-9,9.110608519452357e-5,5205013.123007408,19
01PES0062G,21.85475,-102.28469,3,1.4756423485824797e-10,10881,1.475639514591083e-10,1.4756423485824797e-10,7.678867013192463e-5,67814.92061466913,7
01PST0004I,21.89815,-102.31379,3,5.401152455979625e-11,1186,5.4011424633513977e-11,5.401152455979625e-11,6.894669070873776e-5,11417.14753999867,4
04DES0006G,18.25541,-92.09729,3,4.9889896987416145e-17,3,9.869285899412694e-18,4.9889896987416145e-17,1.5659530919863657e-4,2.914577440175933,3
04DES0013Q,18.6011,-90.72987,3,8.81597305978376e-11,21761,8.815970914855819e-11,8.81597305978376e-11,6.915905368209977e-5,37.26211854946433,3
04DST0009W,18.61556,-92.19806,3,2.649569585635851e-10,0,2.6495695102231556e-10,2.649569585635851e-10,3.053788399860233e-5,1.7141063201224298,1
04DST0010L,18.18708,-91.03999,3,2.7335527297701642e-17,3,7.466343058066066e-18,2.7335527297701642e-17,1.565953091986367e-4,2.9145774401759352,3
04DST0024O,18.77772,-90.92676,3,7.429926224577539e-18,0,1.5190039694430957e-18,7.429926224577539e-18,8.160600620213629e-5,1.5430806348152448,1
04DST0029J,18.53648,-90.76342,3,1.5734923124462033e-9,0,1.5734923092407105e-9,1.5734923124462033e-9,1.3518037351244498e-5,331.32142460758,1
04DST0030Z,18.53122,-91.08451,3,3.617204782407503e-17,0,0,3.617204782407503e-17,8.160600620213629e-5,1.543080634815236,1
04DST0032X,18.65102,-90.28066,3,1.5446170414119166e-17,1,3.944575547786018e-18,1.5446170414119166e-17,1.1910065770038642e-4,2.1781835566085817,2
04DST0039Q,18.94387,-90.72445,3,7.429926224577539e-18,0,1.430115388446522e-18,7.429926224577539e-18,8.160600620213629e-5,1.543080634815237,1
04DST0041E,18.62552,-92.29888,3,3.3247378929713413e-9,22659,3.324737843525332e-9,3.3247378929713413e-9,1.2714892645606795e-4,6.621906617804562,4
04DTV0028Y,18.29591,-90.73771,3,1.2076911652025974e-17,0,1.8091370997995064e-18,1.2076911652025974e-17,8.160600620213629e-5,1.5430806348152457,1
05DES0005G,25.57257,-103.43497,3,1.3747869388635432e-9,12607,1.37478663451181e-9,1.3747869388635432e-9,8.704613736324099e-5,1038975.2998103991,13
05DES0011R,25.55321,-103.45501,3,5.958711682737148e-10,5,5.958708997452906e-10,5.958711682737148e-10,9.347762849877429e-5,814864.7851000208,15
05DES0015N,25.7686,-103.26726,3,7.687187830434041e-11,93570,7.687183543227555e-11,7.687187830434041e-11,6.833786812499117e-5,4855.872829672895,6
05DES0017L,25.52606,-103.43307,3,2.964799048811399e-10,197821,2.9647950699550107e-10,2.964799048811399e-10,1.0282238101708321e-4,3049560.6663859794,25
05DES0023W,25.55086,-103.42008,3,3.4358066709413555e-10,667,3.4358032868341295e-10,3.4358066709413555e-10,1.0709032126100911e-4,3251762.3872103137,23
05DES0025U,25.53348,-103.47493,3,6.090780832333363e-11,9909,6.09075948736737e-11,6.090780832333363e-11,9.313662793730146e-5,659727.0654689427,13
05DES0036Z,25.51549,-103.44225,3,8.240077266412968e-11,23260,8.240038816904118e-11,8.240077266412968e-11,1.4392089729123558e-4,1507235.1247944904,18
05DES0037Z,25.76082,-102.97561,3,8.581648786596165e-12,21761,8.581279202973061e-12,8.581648786596165e-12,2.4903104381842755e-4,4226.353117799412,9
05DES0039X,25.55604,-103.38029,3,1.4328920249403227e-10,2429,1.4328887118458096e-10,1.4328920249403227e-10,1.0049272607226533e-4,991764.7697269885,16
05DES0040M,25.77883,-103.32516,3,9.074267689660713e-13,0,9.074072280904087e-13,9.074267689660713e-13,6.124417791677242e-5,9.55831983383516,2
05DES0041L,25.52329,-103.23261,3,2.03545432453652e-11,0,2.0354500546535523e-11,2.03545432453652e-11,5.2482861017240134e-5,11915.235365993094,2
05DES0043J,25.51105,-103.40119,3,3.855045393344079e-10,38328,3.855039377938988e-10,3.855045393344079e-10,1.951741994176183e-4,4088861.4979907866,30
05DES0044I,25.83835,-103.27682,3,3.0749454265632604e-12,54391,3.0748600858754538e-12,3.0749454265632604e-12,1.6500838813077436e-4,30.08317358356851,6
05DES0045H,25.5409,-103.35432,3,3.9277239310543074e-10,0,3.927721386897999e-10,3.9277239310543074e-10,6.8123838245243425e-05,608358.5842210827,10
05DES0053Q,25.56981,-103.44584,3,1.3798523801239077e-8,1204586,1.3798523378753418e-8,1.3798523801239077e-8,1.428055548870423e-4,3466616.5243551047,30
05DES0054P,25.55121,-103.41247,3,7.551302033185118e-11,0,7.551277342418934e-11,7.551302033185118e-11,6.868734639529052e-5,803678.6203895623,10
05DES0059K,25.50139,-103.38229,3,6.27914913735127e-10,32536,6.279145566321136e-10,6.27914913735127e-10,1.0430908433803885e-4,2227485.7063826374,21
05DES0080N,25.60537,-103.36617,3,1.933338731946022e-10,0,1.933337463459419e-10,1.933338731946022e-10,9.281759942893368e-5,181031.3733016928,9
05DES0084J,25.49319,-103.34549,3,2.892801529981883e-11,21760.5,2.892781579233403e-11,2.892801529981883e-11,8.709391118343152e-5,340183.78510142845,11
05DES0085I,25.54363,-103.32721,3,2.4989478988962285e-11,0,2.498923892132209e-11,2.4989478988962285e-11,6.902659875886981e-5,94918.0447865576,3
05DST0001C,25.53559,-103.44061,3,2.917091248845232e-10,493997,2.917087773254634e-10,2.917091248845232e-10,1.5486748050257669e-4,6591063.700770686,45
05DST0007X,25.7587,-102.98925,3,1.7655081872707383e-12,101115,1.7654158584303528e-12,1.7655081872707383e-12,8.080279533075803e-5,13645.08120824797,9
05DST0011J,25.48676,-103.1431,3,8.188248353756351e-12,10881,8.188153222759508e-12,8.188248353756351e-12,1.012693616158304e-4,10174.340105500281,3
05DST0013H,25.63408,-103.37729,3,2.7063284078553327e-10,32730,2.706326518046814e-10,2.7063284078553327e-10,1.2285626487906916e-4,722778.1134670367,15
05DST0014G,25.69282,-103.28277,3,2.98991413962321e-11,10881,2.989901374708581e-11,2.98991413962321e-11,1.2166379851683159e-4,24577.218098487614,6
05DST0017D,25.77691,-103.11102,3,6.318742516861093e-13,21760,6.318346744614677e-13,6.318742516861093e-13,7.734313158048348e-5,626.0002203435614,5
05DST0019B,25.10449,-103.33463,3,1.4594551546508902e-18,1,2.842653460329394e-18,1.4594551546508902e-18,1.1910065770038644e-4,2.1781835566085737,2
05DST0022P,25.87252,-103.22161,3,1.1753239893615152e-12,0,1.1752974153465698e-12,1.1753239893615152e-12,6.32064765719365e-5,54.58314276282665,3
05DST0026L,25.41199,-103.30487,3,2.2103610863605546e-11,10881,2.2103495436014734e-11,2.2103610863605546e-11,8.466612703278226e-5,186746.88726909162,7
05DST0036S,25.58396,-103.4103,3,7.10462707684774e-10,0,7.104624441429995e-10,7.10462707684774e-10,8.152088928086437e-5,586324.280271922,12
05DST0040E,25.68545,-103.06653,3,5.396195032152391e-14,0,5.3948270426832866e-14,5.396195032152391e-14,2.2773881972195073e-5,60.718587489616695,2
05DST0042C,25.52799,-103.3873,3,6.338597523220165e-11,0,6.338576967556963e-11,6.338597523220165e-11,5.5842634026315375e-5,355477.9143969872,7
05DST0043B,25.69649,-103.3365,3,3.100029231401937e-11,0,3.100017874756425e-11,3.100029231401937e-11,6.24379000799157e-5,8287.763853761791,3
05DST0044A,25.39346,-103.20261,3,7.323701903948517e-13,10879,7.323590782679633e-13,7.323701903948517e-13,5.556609111538662e-5,10112.379210797315,2
05DST0045Z,25.76212,-103.24177,3,1.3220566668204827e-12,0,1.322048864603169e-12,1.3220566668204827e-12,5.740228257532386e-5,91.3516999011011,2
05DST0046Z,25.90345,-103.26029,3,1.4032513000340616e-13,0,1.40316357311973e-13,1.4032513000340616e-13,4.810518679470334e-5,3.2245011210891628,2
05DST0047Y,25.58031,-103.25968,3,3.94455170133158e-11,21758,3.944539573051151e-11,3.94455170133158e-11,7.51033189720307e-5,312986.4639662012,9
05DST0050L,25.64013,-103.33474,3,1.6703783504302342e-11,0,1.670374511977172e-11,1.6703783504302342e-11,3.495036522847429e-5,4818.6664158666545,2
05DST0054H,25.55247,-103.36994,3,3.5972230512382227e-10,21890,3.597219310913501e-10,3.5972230512382227e-10,1.277352693715016e-4,3989781.229185335,30
05DST0055G,25.86306,-103.17582,3,7.99725085325741e-14,10881,7.995025982701224e-14,7.99725085325741e-14,1.0066375405442469e-4,4.471496152089852,2
05DST0057E,25.71134,-103.00216,3,9.837949966072457e-13,21761,9.836394406927632e-13,9.837949966072457e-13,1.3879100738477121e-4,385.6707462646946,6
05DST0062Q,25.53494,-103.31079,3,9.206593611903401e-11,221578,9.206561171894885e-11,9.206593611903401e-11,1.698416051410384e-4,3318292.6313384664,32
05DST0071Y,25.5275,-103.36077,3,5.657399256776363e-11,816,5.657372896558532e-11,5.657399256776363e-11,8.250013893984606e-5,2146289.374425905,20
05DST0075U,25.57629,-103.39303,3,7.000465155457905e-11,1203,7.000429036022891e-11,7.000465155457905e-11,1.1156344942396258e-4,2184557.3364709034,20
05DST0077S,25.5396,-103.39874,3,1.0374084716696789e-10,194,1.0374055739702402e-10,1.0374084716696789e-10,7.596182253351158e-5,1780211.8976404378,16
05DST0079Q,25.78839,-103.19129,3,6.8724011599530535e-12,0,6.872329436792611e-12,6.8724011599530535e-12,6.205590134658766e-5,13976.950231873765,4
05DST0083C,25.53237,-103.41843,3,3.8529903291335025e-10,130716,3.8529854156511036e-10,3.8529903291335025e-10,1.610710228945066e-4,5300852.126891779,38
05DST0091L,25.51373,-103.43243,3,5.750833882131838e-11,31926.5,5.750776697694059e-11,5.750833882131838e-11,1.3035357928211944e-4,1246816.324477701,15
05DST0092K,25.54379,-103.38059,3,5.867776914965289e-10,236356,5.867773051028741e-10,5.867776914965289e-10,1.315694956455447e-4,4019570.31511987,33
05DST0094I,25.49363,-103.37772,3,5.638569707568086e-11,7,5.6385215856056786e-11,5.638569707568086e-11,1.0396682574140204e-4,237555.5613837287,7
05DTV0025Z,24.81095,-102.94702,3,1.3543803480344721e-17,0,1.740104780515245e-18,1.3543803480344721e-17,8.160600620213629e-5,1.5430806348152442,1
05DTV0067Z,25.69998,-103.11392,3,1.5051761451630672e-13,0,1.5051494616771e-13,1.5051761451630672e-13,3.300636713078126e-5,33.09080736677049,1
05DTV0092Y,25.76581,-102.96898,3,8.580339353780541e-13,0,8.579763645038998e-13,8.580339353780541e-13,4.2492634978547965e-5,351.3487231176273,3
05EES0012P,25.78223,-103.27448,3,9.171983779164492e-12,5,9.171941065032214e-12,9.171983779164492e-12,1.3038012612074686e-4,31.406720831748846,5
05EES0014N,25.54248,-103.45786,3,1.1510095870669584e-10,889.75,1.1510066216960055e-10,1.1510095870669584e-10,9.69817966906676e-5,1209790.3997501342,15
05EES0015M,25.54248,-103.45786,3,2.603179870880016e-10,0,2.603177354267862e-10,2.603179870880016e-10,8.3013876202322e-5,786961.6026697896,13
05EES0016L,25.53808,-103.43277,3,1.6860076122744436e-10,2947.75,1.6860058379618571e-10,1.6860076122744436e-10,7.714262573110998e-5,1343015.05910266,17
05EES0061Y,25.53808,-103.43277,3,2.4251022687021674e-10,21756,2.425099294156504e-10,2.4251022687021674e-10,1.0400248170849992e-4,1650364.9097375795,18
05EES0065U,25.51436,-103.38254,3,1.0332626699392774e-10,14,1.0332593542871261e-10,1.0332626699392774e-10,8.952378799246631e-5,2080744.486669823,18
05EST0008V,25.54736,-103.39194,3,2.5152157201317366e-10,7634,2.5152133457579617e-10,2.5152157201317366e-10,8.836443656493063e-5,1383851.538839143,15
05EST0010J,25.7428,-102.98189,3,8.379884476151109e-13,0,8.37927227451192e-13,8.379884476151109e-13,5.094992734857817e-5,74.65389193458823,1
05EST0012H,25.54736,-103.39194,3,6.310044205019711e-11,0,6.310027607288695e-11,6.310044205019711e-11,6.772700416949197e-5,438108.2677652285,9
05EST0013G,25.75774,-102.99341,3,5.047071307469164e-12,10881,5.046942629379625e-12,5.047071307469164e-12,1.593687279398993e-4,24073.15295067292,8
05EST0018B,25.53414,-103.2439,3,1.4873370021183731e-10,0,1.487336111182742e-10,1.4873370021183731e-10,6.734198084733749e-5,28167.90235084667,3
05PES0006K,25.75782,-102.9904,3,6.040483660383589e-13,0,6.040002854689315e-13,6.040483660383589e-13,6.512816886749725e-5,82.27868563889592,2
05PES0007J,25.53892,-103.45265,3,5.51276349676644e-10,20121.5,5.51276017534932e-10,5.51276349676644e-10,1.1371258761204822e-4,3200943.2315535075,28
05PES0020D,25.54041,-103.45528,3,1.0267644859050566e-10,0,1.0267627139695935e-10,1.0267644859050566e-10,6.185073330193114e-5,349672.7648823907,9
05PES0021C,25.5635,-103.42491,3,5.91023458837002e-11,0,5.910226520826099e-11,5.91023458837002e-11,7.213453115440634e-5,4567.463422703525,5
05PES0023A,25.57117,-103.38053,3,9.073443162750424e-11,9,9.07343312912421e-11,9.073443162750424e-11,1.0714829120242609e-4,887.5250485024617,6
05PES0026Y,25.5435,-103.44971,3,4.3147380405040953e-10,0,4.3147362328257047e-10,4.3147380405040953e-10,4.8307254982631014e-5,32733.248622300023,3
05PES0028W,25.55837,-103.44272,3,8.631529957676593e-10,10892,8.631527701625255e-10,8.631529957676593e-10,9.066168878129711e-5,297860.96340016514,13
05PES0032I,25.57063,-103.44626,3,4.455478828817603e-10,4717.75,4.455477347183197e-10,4.455478828817603e-10,5.709239910451401e-5,192852.08098833868,9
05PES0037D,25.5389,-103.35752,3,5.430183830708602e-10,5675,5.43018140367617e-10,5.430183830708602e-10,7.448156135020511e-5,1373074.3011866596,16
05PES0051X,25.54306,-103.44451,3,5.128670140034863e-10,0,5.128669322864972e-10,5.128670140034863e-10,6.499744792313013e-5,46611.003885457016,6
05PES0056S,25.5478,-103.32619,3,3.060439213327423e-10,11834,3.0604356634617686e-10,3.060439213327423e-10,1.0511058691522564e-4,375323.36776497395,10
05PES0060E,25.54014,-103.43797000000001,3,7.729265589492401e-10,71891,7.729262483470849e-10,7.729265589492401e-10,1.3219686714308128e-4,1603836.5527916492,25
05PES0064A,25.60433,-103.40432,3,1.88309521286451e-10,54181.75,1.8830937046246694e-10,1.88309521286451e-10,1.4335160461988145e-4,68345.63567215198,14
05PES0078D,25.5757,-103.43274,3,1.9158172396922905e-10,0,1.915815007654966e-10,1.9158172396922905e-10,9.058122256739716e-5,101997.35228002288,9
05PES0087L,25.55818,-103.42731,3,1.33716833115442e-9,51,1.3371679793647594e-9,1.33716833115442e-9,1.458939419974912e-4,809176.5171669178,19
05PES0089J,25.5775,-103.40229,3,5.902630612240583e-10,0,5.902629754089206e-10,5.902630612240583e-10,6.383098460917099e-5,218.34451016514987,2
05PES0102N,25.59261,-103.41527,3,3.0510748933388203e-10,4.5,3.051073435800823e-10,3.0510748933388203e-10,1.0625438878249792e-4,30275.11183566637,9
05PES0104L,25.52584,-103.39817,3,3.0887573802313126e-10,0,3.088756348911579e-10,3.0887573802313126e-10,5.607003782203424e-5,12812.748062833285,4
05PES0111V,25.5412,-103.42535,3,5.655175592817027e-11,32637,5.65516422479813e-11,5.655175592817027e-11,5.125148377944815e-5,87849.88598104886,5
05PES0115R,25.51663,-103.39395,3,4.4793425192421967e-11,2,4.4793342585086365e-11,4.4793425192421967e-11,6.738925628832655e-5,3999.313839161223,5
05PES0120C,25.53917,-103.40744,3,2.1168943218917693e-10,652,2.1168928340002633e-10,2.1168943218917693e-10,7.586300925361479e-5,400196.0896227328,11
05PES0121B,25.54878,-103.45703,3,1.9779790415245718e-10,0,1.9779778623984542e-10,1.9779790415245718e-10,5.9826294483265246e-5,24863.10638092655,6
05PES0123Z,25.53724,-103.41596,3,4.976887779138052e-11,10364,4.9768780694813536e-11,4.976887779138052e-11,3.686891025817052e-5,138567.94004719428,4
05PES0124Z,25.53542,-103.42749,3,3.103927579420612e-10,10856,3.1039255614434933e-10,3.103927579420612e-10,8.159030327774216e-5,361805.0796311702,11
05PES0129U,25.53176,-103.39402,3,1.7326980164339653e-10,86,1.7326964477469718e-10,1.7326980164339653e-10,5.297651177564063e-5,454278.9614054803,9
05PES0135E,25.52503,-103.37914,3,5.686391150243192e-9,242525,5.686390641930471e-9,5.686391150243192e-9,2.2164034735475664e-4,1274826.3180668338,29
05PES0142O,25.54257,-103.42693,3,1.4268140438463712e-9,0,1.4268137946017793e-9,1.4268140438463712e-9,8.75747885633231e-5,174065.79511518867,9
05PES0143N,25.53686,-103.43106,3,3.6802295176466255e-10,39,3.6802264235157073e-10,3.6802295176466255e-10,1.026626205670311e-4,848116.5628257756,15
05PES0145L,25.51008,-103.39072,3,3.585207819783804e-11,0,3.5851939917712066e-11,3.585207819783804e-11,3.412138651184087e-5,178375.86683917246,4
05PES0146K,25.52111,-103.38553,3,2.4547701231187694e-10,0,2.454767050001287e-10,2.4547701231187694e-10,1.1547298788350621e-4,653071.3328483205,14
05PES0149H,25.52136,-103.39627,3,3.58666586786271e-10,11191,3.5866636574340733e-10,3.58666586786271e-10,1.042458740968061e-4,376257.7519196445,15
05PES0153U,25.51403,-103.41143,3,3.6181602416868056e-10,0,3.6181583615214695e-10,3.6181602416868056e-10,5.4325467585306844e-5,86972.70676270917,4
05PES0156R,25.55682,-103.40688,3,2.6426584722069695e-10,0,2.642656170098507e-10,2.6426584722069695e-10,8.977412051216075e-5,180296.25547013455,9
05PES0172I,25.54066,-103.39759,3,8.355603727203597e-10,0,8.355599518012513e-10,8.355603727203597e-10,1.3902875133426788e-4,84387.96123797308,5
05PST0006C,25.53794,-103.44446,3,1.2538260381403476e-8,9441,1.2538260268229991e-8,1.2538260381403476e-8,5.3165039871356064e-5,307177.95316185866,9
06DES0001J,18.90654,-103.86828,3,1.0393256585257514e-9,187096,1.0393254354313859e-9,1.0393256585257514e-9,1.2644950662854846e-4,273.1380669874533,9
06DES0002I,19.25353,-103.7245,3,6.117153026106597e-11,1076,6.11714265675678e-11,6.117153026106597e-11,6.635850030234136e-5,2870.0437801393823,12
06DES0003H,19.09096,-104.31413,3,6.04200895863556e-10,942207,6.042007394850339e-10,6.04200895863556e-10,9.831403513884544e-5,1974.3734932322802,16
06DES0004G,18.94209,-103.96479,3,3.4250516830016803e-12,0,3.424989194953414e-12,3.4250516830016803e-12,7.042861396552856e-5,64.92069055219413,3
06DES0005F,19.2545,-103.73864,3,1.104088482039152e-9,86809,1.1040883285700312e-9,1.104088482039152e-9,7.200309696414916e-5,7606.013399978392,14
06DES0006E,19.02423,-104.32312,3,6.178244350335251e-11,8061,6.178238252560952e-11,6.178244350335251e-11,7.019338301717758e-5,288.0151728964128,7
06DES0007D,18.92284,-103.88583,3,3.8490220665697407e-10,21998,3.849017078322704e-10,3.8490220665697407e-10,1.9333081818764434e-4,143.7746698290883,10
06DES0008C,19.23946,-103.70721,3,1.6594080859703206e-10,55276.25,1.6594059052228814e-10,1.6594080859703206e-10,1.3465710871925508e-4,4797.225586853993,15
06DES0009B,19.25876,-103.74711,3,5.92898645362493e-11,1803.5,5.928967962683959e-11,5.92898645362493e-11,9.542810734515721e-5,4608.4067842557915,12
06DES0010R,19.25353,-103.7245,3,5.126336809466886e-11,45741,5.1263271501967634e-11,5.126336809466886e-11,5.657951111235058e-5,4831.172049324737,12
06DES0011Q,19.2545,-103.73864,3,1.3920798239842226e-11,61898,1.3920711668169047e-11,1.3920798239842226e-11,5.237889316393236e-5,4750.126362612695,14
06DES0012P,18.90654,-103.86828,3,2.773762314672887e-10,13101,2.773759796814967e-10,2.773762314672887e-10,1.5015019342774302e-4,151.12305193995243,11
06DES0013O,19.09096,-104.31413,3,2.2122855052247452e-10,25698.5,2.2122795871288358e-10,2.2122855052247452e-10,2.0864260352242354e-4,1109.010453697681,18
06DES0014N,19.23946,-103.70721,3,5.959558884750972e-11,72715,5.959540434290276e-11,5.959558884750972e-11,9.905480894925343e-5,8661.159406307765,16
06DES0015M,19.02423,-104.32312,3,2.0258658272361744e-11,20546.25,2.0258613453591672e-11,2.0258658272361744e-11,5.466376866020349e-5,173.5651621453926,5
06DES0016L,18.92284,-103.88583,3,1.6558965049293997e-10,10932,1.655894069390686e-10,1.6558965049293997e-10,1.0876907802887389e-4,121.09687243623233,9
06DES0017K,19.25876,-103.74711,3,2.0367417665884783e-11,11077.5,2.0367269892609436e-11,2.0367417665884783e-11,9.978548574779144e-5,3138.402875203493,10
06DES0018J,18.94209,-103.96479,3,1.488701358015718e-11,57979,1.4886737888524698e-11,1.488701358015718e-11,1.845101360176184e-4,94.38227720927851,9
06DES0019I,19.23233,-103.68611,3,8.944670178700285e-11,54789,8.944646894051483e-11,8.944670178700285e-11,1.4856039648920128e-4,3832.4366276516935,13
06DES0020Y,18.94537,-103.92367,3,2.2565922501729707e-11,10881,2.2565874514775287e-11,2.2565922501729707e-11,7.245658358972022e-5,19.5837436769608,4
06DES0021X,18.90429,-103.88735,3,2.1211068291320763e-10,11240,2.121105551504588e-10,2.1211068291320763e-10,8.548421029333198e-5,77.81749539608478,7
06DES0022W,19.28739,-103.73679,3,3.806026767036414e-10,56183,3.8060237019722004e-10,3.806026767036414e-10,1.5841309146054437e-4,9250.419467505528,18
06DES0023V,19.23233,-103.68611,3,3.33580676895894e-11,24579,3.335788542624418e-11,3.33580676895894e-11,1.0364189540706378e-4,2596.257034304141,8
06DES0024U,19.10565,-104.31604,3,9.443885926085364e-9,144487,9.443885783590269e-9,9.443885926085364e-9,7.937156295307064e-5,31825.786128927746,7
06DES0025T,19.11652,-104.3324,3,7.859030886058221e-11,12,7.859024687082218e-11,7.859030886058221e-11,4.895376408294732e-5,91.97953305431062,5
06DES0026S,19.28739,-103.73679,3,1.3664483689519345e-10,476113.625,1.366445335513057e-10,1.3664483689519345e-10,1.6357617866458513e-4,7622.053142660937,20
06DES0027R,19.11652,-104.3324,3,3.765827465458788e-11,2141,3.765820247405559e-11,3.765827465458788e-11,5.198876612273145e-5,172.33178000471452,6
06DES0028Q,18.938110000000002,-103.88784,3,3.731832074033136e-10,10937,3.731830340506089e-10,3.731832074033136e-10,7.960469911712364e-5,192.5004800275511,9
06DES0029P,19.10565,-104.31604,3,9.63646598969673e-10,24.5,9.636465113053543e-10,9.63646598969673e-10,6.105861408428743e-5,303.3319478177339,6
06DSN0002Q,19.25316,-103.72402,3,5.808845055276363e-11,676.5,5.808832275731933e-11,5.808845055276363e-11,9.505054059920947e-5,4843.313943894867,12
06DSN0003P,19.26433,-103.73694,3,3.747499671589746e-11,3981,3.747480056164792e-11,3.747499671589746e-11,8.34792916411215e-5,4322.642355431626,10
06DSN0008K,19.05741,-104.29078,3,9.445866386003172e-12,22,9.445799337786275e-12,9.445866386003172e-12,4.9655637043818804e-5,86.83484927977452,4
06DSN0009J,19.20755,-103.80836,3,9.040154377200693e-12,0,9.040069575800912e-12,9.040154377200693e-12,8.753852678162547e-5,13.079105380555662,2
06DST0001B,19.24891,-103.70455,3,8.487727522530332e-10,549008.5,8.4877252681163e-10,8.487727522530332e-10,1.456507272504923e-4,14644.568411808088,27
06DST0002A,19.20239,-103.80758,3,4.3098254654524934e-11,58462,4.3098150096936524e-11,4.3098254654524934e-11,1.1019633331082085e-4,319.4929105762612,6
06DST0004Z,19.09293,-104.30042,3,5.953167380397301e-10,48722,5.953165707391847e-10,5.953167380397301e-10,1.433200461528043e-4,705.8453383002578,15
06DST0005Y,19.30888,-103.75577,3,2.0655213182915285e-11,130423,2.065508879291527e-11,2.0655213182915285e-11,6.889111869618012e-5,1343.0856736379299,8
06DST0006X,19.24833,-103.75612,3,8.966819997993586e-11,60719,8.966799169250433e-11,8.966819997993586e-11,1.0436065871461626e-4,6844.148899307324,16
06DST0007W,18.74927,-103.72529,3,8.611218627614366e-11,44,8.611210119225626e-11,8.611218627614366e-11,6.337023446059774e-5,92.7360663895661,5
06DST0010J,19.08226,-103.86489,3,8.45747089899991e-11,0,8.457452056885293e-11,8.45747089899991e-11,6.027601067320026e-5,7.884865654470338,2
06DST0011I,19.12975,-104.34663,3,9.583631135328125e-10,27670,9.583630037541072e-10,9.583631135328125e-10,7.875520116153124e-5,520.5988085702148,8
06DST0012H,19.38364,-104.04805,3,2.392550888944648e-11,15749,2.3925385792278392e-11,2.392550888944648e-11,1.0960108077450206e-4,593.7753197125488,5
06DST0013G,19.38276,-103.57677,3,3.104976544261291e-13,3798,3.1045442863536426e-13,3.104976544261291e-13,1.0349768831403072e-4,4.048319605031668,3
06DST0014F,19.16687,-103.92792,3,2.0876596216010694e-12,0,2.0876071645879555e-12,2.0876596216010694e-12,5.44513291075016e-5,4.578071285095012,1
06DST0015E,19.05553,-104.24568,3,5.892570966240467e-11,18,5.892561163498702e-11,5.892570966240467e-11,1.0134178730204787e-4,353.24494460984414,9
06DST0016D,19.36115,-103.57582,3,3.93833019452085e-12,14675,3.938302546217574e-12,3.93833019452085e-12,4.817537348055098e-5,47.72860538367231,3
06DST0018B,19.27247,-103.66446,3,2.4326889651195713e-11,20738.5,2.4326817055696975e-11,2.4326889651195713e-11,8.833209893983258e-5,460.4347467196601,5
06DST0019A,19.37828,-103.70981,3,2.1675201925747992e-12,0,2.1674788856580034e-12,2.1675201925747992e-12,9.986824405105989e-5,20.384834626356476,3
06DST0020Q,18.91662,-103.86202,3,6.2604797365853045e-9,109223,6.260479509399229e-9,6.2604797365853045e-9,1.262566101398603e-4,518.5522876974601,9
06DST0021P,19.00674,-104.10853,3,1.0369104976646634e-13,0,1.0368676385070809e-13,1.0369104976646634e-13,2.841494073513835e-5,1.8447786458689586,1
06DST0023N,19.23349,-103.74546,3,1.5833902900993027e-11,0,1.5833803587299734e-11,1.5833902900993027e-11,8.992206099736039e-5,1641.5892845591484,8
06DST0025L,19.24833,-103.75612,3,2.1019705418635363e-10,448630,2.1019679140672848e-10,2.1019705418635363e-10,1.5896840622890406e-4,11000.052792519351,22
06DST0026K,19.09293,-104.30042,3,7.989447304582057e-11,60213,7.989437714089495e-11,7.989447304582057e-11,8.664483802214504e-5,392.12613898124204,12
06DST0027J,19.12975,-104.34663,3,1.1929123985971743e-10,103647.75,1.192910682257884e-10,1.1929123985971743e-10,1.6853944774265436e-4,306.15886267570403,11
06DST0028I,18.91662,-103.86202,3,1.2288884943088882e-9,86452,1.2288882536528945e-9,1.2288884943088882e-9,1.041004018065966e-4,225.882441930207,9
06DST0029H,19.20239,-103.80758,3,1.0478440922387558e-11,17678,1.0478325466893771e-11,1.0478440922387558e-11,1.3468659351642044e-4,391.36348884773975,6
06DST0030X,19.05553,-104.24568,3,8.83025145889616e-12,159,8.830209153732927e-12,8.83025145889616e-12,5.2736994093560505e-5,66.28955531941152,4
06DTL0002H,19.07194,-104.28393,3,4.938626851219432e-13,0,4.938512113881757e-13,4.938626851219432e-13,1.877966404758429e-5,6.052664083081091,1
06DTV0008I,19.11824,-104.26988,3,5.4549696716824855e-12,0,5.454928315297981e-12,5.4549696716824855e-12,3.6615681811603474e-5,39.63023083395806,3
06DTV0015S,19.20263,-104.56021,3,1.767122635280024e-11,0,1.76711688416884e-11,1.767122635280024e-11,7.405546955819976e-5,6.206806231870916,2
06DTV0019O,19.23884,-104.49914,3,1.5813560986672434e-12,0,1.5813503857307834e-12,1.5813560986672434e-12,1.7577341361414746e-5,3.3109595108943006,1
06EES0001I,19.26892,-103.73335,3,5.5379549230389774e-11,1452.875,5.5379320581849333e-11,5.5379549230389774e-11,1.0176936497284366e-4,5061.268231458922,12
06EES0005E,19.06094,-104.28937,3,4.8857800061684115e-11,120,4.885768515067745e-11,4.8857800061684115e-11,8.120933960206515e-5,330.8771559054259,9
06EES0008B,19.23098,-103.71965,3,7.667160424487475e-11,515.125,7.667139844472607e-11,7.667160424487475e-11,1.2661378134883546e-4,4306.397791093362,12
06EES0009A,19.23098,-103.71965,3,6.881700022165265e-11,33667,6.881669328756395e-11,6.881700022165265e-11,0.00016856894078208729,5420.376572284921,15
06EES0010Q,19.24552,-103.69412,3,4.6542315432234e-11,4645,4.654219857845774e-11,4.6542315432234e-11,7.316772025531547e-5,2279.2439192223624,9
06EES0017J,19.26892,-103.73335,3,7.626499168405737e-11,16444,7.626474566513096e-11,7.626499168405737e-11,1.1260214822166058e-4,6186.12951989826,13
06EES0018I,19.06094,-104.28937,3,2.016088209809247e-11,21784,2.016074856686844e-11,2.016088209809247e-11,1.686601920837729e-4,325.30583751784695,12
06ETV0001O,19.29352,-103.70322,3,1.0309653942214138e-11,0,1.0309648083938548e-11,1.0309653942214138e-11,1.4925922549005947e-5,287.4111636477477,1
06PES0001O,18.91694,-103.8742,3,1.1254168360838379e-9,10881,1.1254167093517001e-9,1.1254168360838379e-9,8.773781968238866e-5,9.885593340631853,3
06PES0003M,19.10461,-104.31907,3,5.455714177485407e-11,0,5.4557075106976466e-11,5.455714177485407e-11,6.413006941073994e-5,30.013483247697927,4
06PES0004L,19.23562,-103.72001,3,1.2719311982707291e-11,0,1.2719210504748205e-11,1.2719311982707291e-11,5.122820807106522e-5,98.69590440749845,2
06PES0009G,19.2349,-103.73174,3,6.093515349627185e-12,0,6.093461097515466e-12,6.093515349627185e-12,3.722703310967634e-5,161.39277636243048,2
06PES0012U,19.23999,-103.72707,3,1.4901259234693116e-11,32,1.4901137704456435e-11,1.4901259234693116e-11,6.99692453577836e-5,924.0543503338845,7
06PES0013T,19.24175,-103.72432,3,2.7592924017385068e-11,10889,2.75928016427823e-11,2.7592924017385068e-11,8.355561194496719e-5,2470.6313032326593,10
06PES0017P,19.07003,-104.30079,3,8.951688633734185e-11,0,8.95168192612225e-11,8.951688633734185e-11,7.54841713338054e-5,88.52922901812845,5
06PES0019N,19.10572,-104.33315,3,6.582301303319097e-10,10828,6.58229875210182e-10,6.582301303319097e-10,1.6210792819179576e-4,473.1643539604878,11
06PES0029U,19.26419,-103.7186,3,3.6160348740927172e-12,0,3.6160028629977648e-12,3.6160348740927172e-12,3.182561224703295e-5,155.41003230736771,3
06PES0033G,19.2758,-103.71437,3,7.456831848038722e-12,0,7.456753179329447e-12,7.456831848038722e-12,5.376426655378965e-5,73.67991358619923,2
06PES0034F,19.13486,-104.32508,3,7.491315966385148e-11,0,7.491309135718859e-11,7.491315966385148e-11,6.755424704399789e-5,88.52922901812707,5
06PES0035E,19.25798,-103.69517,3,2.4629419542975533e-11,327,2.4629265915103196e-11,2.4629419542975533e-11,9.246492761225857e-5,791.722022006472,7
06PES0036D,19.24675,-103.72296,3,5.7561704485215786e-12,1,5.7561079116567255e-12,5.7561704485215786e-12,5.4441198305230434e-5,425.42068709163823,5
06PES0039A,19.26399,-103.73516,3,4.094577750029591e-10,0,4.0945763297847466e-10,4.094577750029591e-10,6.973360452086542e-5,243.99306906584837,3
06PES0040Q,19.25826,-103.71775,3,4.998541176643421e-11,18890,4.9985253674975715e-11,4.998541176643421e-11,1.408322326046032e-4,3280.3493096273087,14
06PES0041P,19.25479,-103.71878,3,3.486711315795233e-11,17303.25,3.4866987778953453e-11,3.486711315795233e-11,1.0816095994774248e-4,1710.6814357314936,10
07DES0001I,16.71576,-93.01946,3,1.8611973394576822e-10,32555.25,1.8611948408408137e-10,1.8611973394576822e-10,1.912580566948763e-4,1850.28683124992,15
07DES0002H,15.1453,-92.45823,3,3.570122442827267e-14,54389,3.570114316696214e-14,3.570122442827267e-14,8.382142329290805e-5,4.691675238587534,4
07DES0003G,14.90278,-92.26135,3,1.2326039093288917e-9,1234247,1.2326038185379816e-9,1.2326039093288917e-9,8.787618119221989e-5,5888.677310503413,23
07DES0004F,16.75222,-93.12362,3,1.2920673918287504e-9,195966,1.292067227706852e-9,1.2920673918287504e-9,7.546660332321066e-5,5022.550707928882,16
07DES0005E,16.69662,-93.72083,3,2.881439953630691e-11,112147,2.8814283277251256e-11,2.881439953630691e-11,1.571437052300182e-4,136.95329025008536,9
07DES0006D,16.75604,-93.37334,3,1.199363783867587e-10,46023,1.1993631178060727e-10,1.199363783867587e-10,1.2427521511124023e-4,73.16241431331513,7
07DES0007C,16.22914,-93.26846,3,2.8460362332217624e-9,146011,2.8460361701471504e-9,2.8460362332217624e-9,1.0830832503313983e-4,666.6806147437959,12
07DES0008B,17.51831,-93.11089,3,3.6967446500834537e-13,10888,3.696573376689692e-13,3.6967446500834537e-13,1.158182600392626e-4,3.5308374924470525,3
07DES0009A,14.67539,-92.15193,3,2.3798388781836757e-11,62166,2.3798256857845044e-11,2.3798388781836757e-11,1.7827587433618097e-4,396.316690693471,11
07DES0011P,16.7788,-93.11599,3,3.66735040219673e-9,12681,3.6673503217417656e-9,3.66735040219673e-9,4.874464974620434e-5,292.0172060891684,6
07DES0012O,14.88512,-92.24969,3,6.154864304980223e-10,587330,6.154862851579086e-10,6.154864304980223e-10,1.4257846119261576e-4,5320.051495964604,27
07DES0013N,15.00737,-92.40436,3,1.1916522079947575e-12,65257,1.1916128119894925e-12,1.1916522079947575e-12,1.3447393407176663e-4,5.02284093983247,4
07DES0014M,16.74753,-92.63774,3,1.0613647289729985e-11,999,1.0613544466435452e-11,1.0613647289729985e-11,8.317711200751765e-5,135.98946582691477,7
07DES0016K,16.07949,-93.76795,3,1.6421336024916073e-10,45146,1.642132631880918e-10,1.6421336024916073e-10,1.6359942401748047e-4,250.652352908095,9
07DES0017J,16.76602,-93.06869,3,2.720717260396061e-10,11097,2.720715989582043e-10,2.720717260396061e-10,8.660007288588823e-5,2952.497707607762,14
07DES0018I,15.05167,-92.14167,3,1.356231871598806e-10,0,1.3562317499888036e-10,1.356231871598806e-10,2.6276890229887193e-5,22.08606679995581,2
07DES0019H,16.17337,-93.07504,3,1.2039831137238108e-12,43515,1.2039534343891342e-12,1.2039831137238108e-12,1.130320463168075e-4,3.1536826508183537,3
07DES0020X,16.76047,-93.09967,3,1.0441214878254252e-9,207558,1.0441211670105237e-9,1.0441214878254252e-9,1.8891574135456777e-4,11939.360921998154,26
07DES0021W,14.89572,-92.24888,3,4.701546100927018e-9,19788,4.701545978840822e-9,4.701546100927018e-9,1.259864012154727e-4,2656.9083356385154,14
07DES0022V,16.77819,-93.08999,3,1.5529903300649403e-9,465393,1.5529898888410275e-9,1.5529903300649403e-9,1.8557442487849982e-4,5399.70402286167,22
07DES0023U,14.94088,-92.16198,3,2.5874365177935166e-12,0,2.5874314875534958e-12,2.5874365177935166e-12,4.171281958892082e-5,6.77310499046371,2
07DES0025S,17.86938,-93.14913,3,6.315224800924575e-9,167905,6.315224714429272e-9,6.315224800924575e-9,1.1341533696011549e-4,8682.443638834055,9
07DES0030D,14.89906,-92.24661,3,2.590324044822121e-10,21584,2.590323194615459e-10,2.590324044822121e-10,1.0924212266226183e-4,2413.7277565479326,17
07DES0032B,17.50173,-92.00544,3,1.4052570270618127e-10,10913,1.4052544433444948e-10,1.4052570270618127e-10,2.2018068505276112e-4,38.86681359753218,9
07DES0037X,17.09676,-93.21369,3,2.7438545437212363e-9,85493,2.7438543111905017e-9,2.7438545437212363e-9,1.0423324204780594e-4,202.40373511591892,6
07DES0038W,15.12639,-92.43222,3,1.0568948706385677e-17,6,3.1672290814288716e-18,1.0568948706385677e-17,9.166667619616713e-5,3.6246282005082637,3
07DES0039V,16.61333,-92.99306,3,7.429926224577539e-18,0,1.3699585682500562e-18,7.429926224577539e-18,8.160600620213629e-5,1.5430806348152426,1
07DES0040K,15.27702,-92.68621,3,4.2441711707544534e-11,0,4.244170684486482e-11,4.2441711707544534e-11,2.00014403511905e-5,3.643615238893738,1
07DES0042I,16.54622,-92.89847,3,1.2880785136651008e-10,10881,1.2880775677489304e-10,1.2880785136651008e-10,1.0291429440413579e-4,190.87324990382058,4
07DES0044G,16.76201,-93.38284,3,8.37332680117459e-11,6650,8.373321800660587e-11,8.37332680117459e-11,9.939703201339634e-5,21.375587083187845,6
07DES0045F,16.74611,-93.09601,3,5.985648607731873e-11,28941,5.985642630345298e-11,5.985648607731873e-11,9.630182806691758e-5,522.0164213413866,7
07DES0047D,16.24326,-92.35346,3,0,0,9.497065172874734e-19,0,8.160600620213629e-5,1.5430806348152364,1
07DES0049B,15.34661,-92.67768,3,3.496757395551273e-8,65267,3.49675737952595e-8,3.496757395551273e-8,1.8206881006825777e-4,10.760263790254692,6
07DES0050R,16.89096,-92.92755,3,1.516112103918115e-10,0,1.516111638982788e-10,1.516112103918115e-10,5.7059439721063865e-5,12.118744303644586,2
07DES0052P,16.90573,-92.08017,3,8.220391730374487e-12,163467.25,8.220053579029355e-12,8.220391730374487e-12,1.908480024977499e-4,17.854473720691264,8
07DES0053O,14.9125,-92.32528,3,3.138761867326494e-14,0,3.138417137818792e-14,3.138761867326494e-14,3.520460361847652e-5,1.641602153560391,1
07DES0054N,16.26021,-92.13066,3,2.1460808562215108e-11,76800,2.1460733808125537e-11,2.1460808562215108e-11,6.431652966996098e-5,50.79978881288826,6
07DES0056L,16.72698,-92.65472,3,6.682537468467191e-12,549,6.682415813705878e-12,6.682537468467191e-12,1.048511115725618e-4,347.71778670792105,11
07DES0058J,17.36028,-92.00806,3,3.756278228070094e-12,65261,3.756235753239169e-12,3.756278228070094e-12,1.1281360175264114e-4,5.128286237816008,3
07DES0060Y,14.65639,-92.29972,3,1.9497372773292996e-10,1439,1.949736754556601e-10,1.9497372773292996e-10,4.781816736119384e-5,516.5328321985681,6
07DES3674P,14.86684,-92.45007,3,3.986121826295002e-11,65265,3.986114411462538e-11,3.986121826295002e-11,1.3442546817584382e-4,61.11403711582402,5
07DES3675O,14.87052,-92.29025,3,2.611101831366969e-10,59901,2.6110990456845986e-10,2.611101831366969e-10,1.8277681226556145e-4,3577.481858364932,21
07DSN0001Q,16.74753,-92.63774,3,2.945479197169173e-12,32638,2.945388333621767e-12,2.945479197169173e-12,8.675817516203902e-5,154.73798214760333,8
07DSN0003O,16.74702,-93.07379,3,1.939395710719479e-11,0,1.9393903483365842e-11,1.939395710719479e-11,8.00089329354026e-5,80.02087128163375,3
07DSN0004N,14.88689,-92.27477,3,1.372988901491979e-10,27,1.372987531974418e-10,1.372988901491979e-10,6.96192607838914e-5,1038.2820653090102,7
07DST0001A,16.70745,-92.63486,3,3.448263775646058e-11,129793,3.4482531891726925e-11,3.448263775646058e-11,7.788969688441846e-5,256.5391976294331,10
07DST0002Z,16.74499,-93.13097,3,1.0479637231293525e-9,640355.25,1.0479635284852557e-9,1.0479637231293525e-9,1.159208426324346e-4,6792.929265289807,20
07DST0003Z,14.88853,-92.25669,3,3.4037265709577445e-10,32639,3.4037210345437146e-10,3.4037265709577445e-10,1.6574239266817312e-4,1558.8837068679388,12
07DST0004Y,16.34034,-92.56686,3,8.007678089660396e-17,2,1.2274686887817724e-18,8.007678089660396e-17,1.1019953149739124e-4,2.2272571623738195,2
07DST0005X,16.23351,-92.13349,3,4.98737356780108e-11,142392,4.98735497081636e-11,4.98737356780108e-11,1.5912501869009776e-4,62.15428227250939,11
07DST0006W,15.87157,-92.71508,3,7.433393456425309e-11,32639,7.433387266271161e-11,7.433393456425309e-11,1.1003436794382611e-4,50.17981169357465,4
07DST0007V,16.18658,-93.26468,3,2.352177642448587e-11,29463,2.3521738236583938e-11,2.352177642448587e-11,1.145251001249941e-4,9.8894516960840555,6
07DST0008U,16.66083,-93.64114,3,4.1093680397911925e-12,32639,4.109221331245603e-12,4.1093680397911925e-12,1.508476494947313e-4,5.344855346572049,4
07DST0009T,17.17147,-92.33171,3,3.221381957418726e-12,151749,3.2213386184451447e-12,3.221381957418726e-12,1.3862518485233892e-4,12.508799524173405,8
07DST0010I,17.53666,-91.99119,3,2.215250911172349e-10,491762,2.215248886984328e-10,2.215250911172349e-10,2.460065727419769e-4,75.07178388575109,16
07DST0011H,16.21833,-93.94444,3,1.3130318910116643e-14,0,1.3128471295539674e-14,1.3130318910116643e-14,2.2666980056906655e-5,1.6653979681977118,1
07DST0012G,15.44355,-92.89591,3,4.422210105291604e-12,54391,4.422147406429337e-12,4.422210105291604e-12,6.996237174325947e-5,12.014825678337651,4
07DST0013F,16.23979,-93.90767,3,3.2236575474444718e-12,43512,3.223572694556892e-12,3.2236575474444718e-12,8.722217862972719e-5,3.7081471427252617,3
07DST0014E,16.05385,-93.87077,3,2.1636204565120814e-11,10881,2.163616738696825e-11,2.1636204565120814e-11,8.356418237797645e-5,8.4466946910881,3
07DST0015D,14.99457,-92.16881,3,7.235974693337965e-9,21761,7.235974352171104e-9,7.235974693337965e-9,1.6916727507357662e-4,61.10642555673132,7
07DST0016C,16.91509,-92.08933,3,1.0716356834101642e-12,11352,1.071528228534057e-12,1.0716356834101642e-12,1.3317258326631107e-4,5.65809029836999,4
07DST0017B,15.67894,-93.20913,3,2.08571704950432e-12,87098,2.0856638424195767e-12,2.08571704950432e-12,1.4043604551842897e-4,6.066743030618322,5
07DST0019Z,17.55615,-92.34757,3,1.6240068507285795e-11,108866,1.6239947193403023e-11,1.6240068507285795e-11,8.252694195205869e-5,12.463260992470714,6
07DST0021O,16.55603,-92.79717,3,1.7357445826118125e-10,34835,1.7357437188216765e-10,1.7357445826118125e-10,1.4381432728637376e-4,69.51712327399709,6
07DST0022N,15.28038,-92.69411,3,1.1468778892040018e-9,10881,1.1468778859255873e-9,1.1468778892040018e-9,7.089714463222797e-5,2.5174548068110534,2
07DST0023M,17.10541,-92.26822,3,1.5042139808895452e-13,21768,1.503850677446539e-13,1.5042139808895452e-13,8.014820531612853e-5,3.3743843260770974,3
07DST0024L,15.0525,-92.30667,3,0,0,8.46954255951343e-19,0,8.160600620213629e-5,1.5430806348152457,1
07DST0026J,16.39389,-93.86972,3,2.751269315741369e-13,0,2.751233680444343e-13,2.751269315741369e-13,1.8669771872002367e-5,2.005190813649963,1
07DST0027I,16.37689,-92.37508,3,7.978304268852608e-9,0,7.978304201271884e-9,7.978304268852608e-9,5.232163382093746e-5,59.62973621029146,1
07DST0028H,15.01962,-92.37798,3,1.814682903562071e-13,76118,1.814545597873189e-13,1.814682903562071e-13,5.1604268442575456e-5,3.0240351456773475,2
07DST0029G,16.30964,-91.98188,3,1.2091216505321439e-12,65265,1.208951743575458e-12,1.2091216505321439e-12,1.5747358347014008e-4,6.547586016243105,5
07DST0030W,14.93567,-92.17026,3,5.477845414367233e-11,0,5.477844444462735e-11,5.477845414367233e-11,2.030626992004112e-5,72.89753697582263,2
07DST0031V,16.78149,-92.34292,3,4.83826989311302e-13,10881,4.837888574200367e-13,4.83826989311302e-13,7.724108887457366e-5,7.995617920533917,2
07DST0032U,15.6568,-92.14687,3,9.002367712176752e-13,54394,9.001897440516159e-13,9.002367712176752e-13,1.328044009205647e-4,8.216039939098119,6
07DST0034S,16.37584,-93.00757,3,1.1596800768796182e-10,21761,1.1596794667752511e-10,1.1596800768796182e-10,1.229778407908674e-4,31.45304888227697,3
07DST0035R,15.73562,-92.28362,3,1.6519050308158515e-10,21761,1.6519032865545177e-10,1.6519050308158515e-10,1.3615912210073657e-4,31.453048882277006,3
07DST0036Q,16.72691,-92.03894,3,4.0352274845914226e-13,21761,4.034017378785651e-13,4.0352274845914226e-13,1.256065692634449e-4,3.5151668524265,3
07DST0037P,16.13692,-93.17005,3,1.9599220973956013e-11,0,1.959917963447957e-11,1.9599220973956013e-11,3.757228973761401e-5,11.50201969535541,1
07DST0038O,16.99472,-92.89522,3,1.1759116050529352e-10,32638,1.1759053637215288e-10,1.1759116050529352e-10,2.3236063865964267e-4,8.231690498127373,6
07DST0039N,17.59923,-93.18533,3,3.350928109663327e-10,54392,3.350927053230756e-10,3.350928109663327e-10,2.2810540079315277e-4,47.428927582225576,7
07DST0042A,17.13572,-92.70021,3,2.5826935959308685e-13,32637,2.580736592497247e-13,2.5826935959308685e-13,1.4788657124802942e-4,4.878590540871195,4
07DST0043Z,17.30438,-92.42797,3,4.449515926960344e-14,32639,4.44955923365213e-14,4.449515926960344e-14,9.05629938981383e-5,3.5013569777868643,3
07DST0044Z,16.11454,-92.05282,3,3.060692262095145e-10,65261,3.0606920953551483e-10,3.060692262095145e-10,8.211058593919294e-5,145.88656395956028,3
07DST0045Y,17.24964,-93.01372,3,1.5453927169176107e-11,65267,1.5453885871703285e-11,1.5453927169176107e-11,1.5911937255428077e-4,407.0104592733389,4
07DST0046X,17.68237,-91.72631,3,3.617204782407503e-17,0,8.223148845488501e-20,3.617204782407503e-17,8.160600620213629e-5,1.543080634815244,1
07DST0047W,15.34944,-92.54444,3,7.853565912391702e-11,32649,7.853559525382949e-11,7.853565912391702e-11,1.492376734880159e-4,38.16217559335934,6
07DST0049U,15.31657,-92.65778,3,1.2123873017129312e-10,152,1.2123869365004069e-10,1.2123873017129312e-10,5.8636337664074814e-5,12.038580664645558,4
07DST0050J,16.11607,-92.68261,3,0,0,6.846061638014459e-19,0,8.160600620213629e-5,1.5430806348152482,1
07DST0051I,17.18951,-93.60542,3,1.5071777646747331e-12,10922,1.5071603652276707e-12,1.5071777646747331e-12,7.518299205074662e-5,3.205375071025904,3
07DST0052H,17.41059,-93.33606,3,4.810901881293272e-10,32557,4.810901546451714e-10,4.810901881293272e-10,7.09995235046168e-5,3.5211949116348356,2
07DST0053G,16.86393,-93.20626,3,1.8947059043316114e-9,54014,1.8947056622908685e-9,1.8947059043316114e-9,2.1680423752239094e-4,245.87276684008486,8
07DST0055E,16.3936,-93.28725,3,1.594017375445264e-11,0,1.5940154218159542e-11,1.594017375445264e-11,5.293342014959586e-5,4.719598058592879,2
07DST0057C,16.87859,-92.71286,3,3.617204782407503e-17,0,0,3.617204782407503e-17,8.160600620213629e-5,1.5430806348152404,1
07DST0058B,14.89212,-92.47527,3,5.427679330906182e-12,32637,5.427601682350468e-12,5.427679330906182e-12,1.1826716679898844e-4,4.313477859701981,3
07DST0059A,16.75162,-93.13363,3,1.8017654762965294e-9,210483,1.801765298312134e-9,1.8017654762965294e-9,1.3740182958614373e-4,3605.3200791044883,18
07DST0060Q,16.49278,-93.63361,3,2.3409341615967716e-10,0,2.340933583681688e-10,2.3409341615967716e-10,5.0392497803628906e-5,10.883719071558327,2
07DST0065L,16.46806,-94.00139,3,5.159494223313005e-10,0,5.159491448676072e-10,5.159494223313005e-10,8.401413053849203e-5,45.755262862812096,2
07DST0067J,17.03222,-92.19294,3,1.7719005242188103e-14,21761,1.7696170766169067e-14,1.7719005242188103e-14,7.728076909373833e-5,3.5471927535286367,3
07DST0068I,16.79334,-93.10332,3,1.923269345847018e-9,12507,1.923269129586097e-9,1.923269345847018e-9,1.371636857823471e-4,696.3389996837652,8
07DST0069H,16.76246,-93.15894,3,5.460946268963419e-8,882809,5.460946242267608e-8,5.460946268963419e-8,1.6555653747989745e-4,7169.1215860659695,25
07DST0071W,14.86324,-92.27968,3,4.367737970629804e-10,51622,4.367736248949608e-10,4.367737970629804e-10,1.24573650364229e-4,1690.5849013708403,14
07DST0072V,16.72351,-92.64624,3,6.185794349066142e-12,369562.5,6.185683178115081e-12,6.185794349066142e-12,1.3331126472836767e-4,360.440286400227,15
07DST0076R,14.71455,-92.41711,3,5.5932788779658525e-11,0,5.5932744485074475e-11,5.5932788779658525e-11,6.576863496813979e-5,29.130142698826003,3
07DST0078P,15.40083,-92.82194,3,5.530881873943804e-12,0,5.530835735442998e-12,5.530881873943804e-12,3.9072850794907034e-5,4.777868540257332,1
07DST0081C,16.74642,-93.12858,3,2.3368743051167255e-10,117900.75,2.336873134464506e-10,2.3368743051167255e-10,9.593621835798173e-5,3009.0561617957924,16
07DST0082B,16.75313,-92.63959,3,1.3770531031090608e-11,12368,1.3770405397448583e-11,1.3770531031090608e-11,9.609085215300386e-5,232.6510350369553,9
07DST0085Z,15.16111,-92.62917,3,1.2895379381842012e-9,0,1.289537865438267e-9,1.2895379381842012e-9,4.660558414981886e-5,247.01115994673614,2
07DST0086Y,14.89975,-92.24226,3,2.3843575396787403e-10,67,2.3843556413718424e-10,2.3843575396787403e-10,1.0773878956905276e-4,2040.5728564234703,11
07DST0087X,17.2918,-93.01063,3,1.2918965722153886e-12,21760,1.2918889264924635e-12,1.2918965722153886e-12,6.716335326634514e-5,4.273034084884126,2
07DST0089V,16.78638,-92.69748,3,3.738386279491538e-13,0,3.7382633827053236e-13,3.738386279491538e-13,2.3897613562939373e-5,3.647745885757555,1
07DST0092I,17.41819,-92.40429,3,3.2888019796163065e-17,1,6.084609115756188e-18,3.2888019796163065e-17,1.1910065770038636e-4,2.178183556608581,2
07DST0094G,15.5861,-92.24604,3,7.600420701939889e-13,0,7.600029444028509e-13,7.600420701939889e-13,5.8452410829840744e-5,1.8429129246284934,1
07DST0097D,17.85367,-93.15416,3,7.609772773249441e-10,0,7.609771772197351e-10,7.609772773249441e-10,1.534902686568582e-4,50.610766139405676,5
07DST0098C,17.42636,-93.03039,3,1.201583119485281e-14,0,1.2018040805164194e-14,1.201583119485281e-14,5.458793555843802e-5,1.590733036132148,1
07DST0100A,16.88692,-92.55128,3,3.617204782407503e-17,0,0,3.617204782407503e-17,8.160600620213629e-5,1.5430806348152433,1
07DST0101Z,17.28426,-92.55311,3,9.394596324479101e-12,10881,9.394566626906092e-12,9.394596324479101e-12,1.1901943177439465e-4,2.4015088269511087,2
07DST0102Z,17.37006,-92.81766,3,4.4291446376056206e-17,4,0,4.4291446376056206e-17,7.41878468943191e-5,2.3351716240498814,2
07DST0106V,14.97736,-92.34245,3,1.784737228852131e-11,0,1.7847318616774394e-11,1.784737228852131e-11,7.069717191825847e-5,1.733162581962908,1
07DST0108T,16.78614,-93.10077,3,1.9674791283569192e-10,10881,1.9674776232737896e-10,1.9674791283569192e-10,8.952805634949224e-5,1307.3247100469891,7
07DST0109S,17.18815,-93.04539,3,2.1536212070876923e-17,12,2.773331230150105e-18,2.1536212070876923e-17,5.009922785988785e-5,2.331998060245923,2
07DST0112F,17.55033,-91.98454,3,2.471858399425412e-11,56,2.4718509561669154e-11,2.471858399425412e-11,7.87805023041439e-5,19.81668717391325,4
07DST0116B,16.43367,-92.58248,3,1.654493021671264e-13,0,1.6542410172492581e-13,1.654493021671264e-13,7.078795622477509e-5,1.621531097425854,1
07DST0117A,17.02767,-92.30617,3,1.9822842897630534e-15,0,1.9788841192130876e-15,1.9822842897630534e-15,5.442572438309887e-5,1.5923499063785502,1
07DST0119Z,16.93994,-92.71532,3,1.1668869317696438e-13,0,1.1660735939081434e-13,1.1668869317696438e-13,8.758871231898283e-5,1.6256661571704558,1
07DST0132T,14.8872,-92.29992,3,5.1703990873843353e-11,0,5.170383102062814e-11,5.1703990873843353e-11,7.843853629411056e-5,635.3915268800017,7
07DST0134R,16.73587,-93.06885,3,1.7587072625815972e-9,23105.75,1.758707145739249e-9,1.7587072625815972e-9,1.2207442424022065e-4,807.6299898847801,11
07DST0135Q,16.45756,-93.12815,3,3.0792064871361297e-10,11130,3.079205548982307e-10,3.0792064871361297e-10,9.911389437191089e-5,66.56396627862144,4
07DST0143Z,16.74272,-93.03838,3,3.452544158949377e-11,0,3.452536324424597e-11,3.452544158949377e-11,5.0779929392138996e-5,24.14846996072073,2
07DST0147V,16.90056,-92.47222,3,1.0223152493262217e-13,0,1.022184862205172e-13,1.0223152493262217e-13,2.1960768505919715e-5,2.775265968704933,1
07DST0159Z,16.69921,-93.17209,3,1.6435713130550716e-9,19330,1.643571207618497e-9,1.6435713130550716e-9,1.0544630049547302e-4,1018.3067507545263,8
07EES0001H,16.69699,-93.72918,3,1.3533081891668806e-11,32640,1.353301793844372e-11,1.3533081891668806e-11,9.649996950508697e-5,17.292609795363028,6
07EES0002G,16.65166,-92.26081,3,7.496889320434163e-13,0,7.495967250728653e-13,7.496889320434163e-13,8.351992981771279e-5,2.7752659687049275,1
07EES0003F,16.69629,-93.71921,3,4.227513185492097e-11,83541,4.2275019218673546e-11,4.227513185492097e-11,9.45120046795394e-5,68.5360123338126,7
07EES0011O,15.65681,-92.14543,3,4.577662676440051e-12,10884,4.5775813914811415e-12,4.577662676440051e-12,1.8945054778742563e-4,8.630666326659469,5
07EES0012N,15.21048,-92.57691,3,4.305152416266829e-12,10881,4.30508899110761e-12,4.305152416266829e-12,7.891571979705377e-5,2.824908690034029,2
07EES0013M,16.23992,-92.13956,3,3.227752570858127e-10,505168,3.2277515859758925e-10,3.227752570858127e-10,9.644771488270117e-5,119.34958039775283,10
07EES0015K,14.98936,-92.16512,3,2.387001014197434e-9,46643,2.387000960368403e-9,2.387001014197434e-9,1.2183692589229505e-4,274.14941250369486,11
07EES0016J,15.32672,-92.65527,3,1.5337953632934575e-9,114064,1.5337953186192505e-9,1.5337953632934575e-9,9.925017318878506e-5,205.33920846445972,8
07EES0018H,15.36659,-92.24789,3,1.391281733630446e-17,13,5.042642924132874e-18,1.391281733630446e-17,1.4327062073592276e-4,2.971961519848761,3
07EES0019G,15.03139,-92.15639,3,6.148509409880877e-8,0,6.14850936994249e-8,6.148509409880877e-8,1.4019733315120378e-4,584.8977936029121,4
07EES0021V,15.68407,-93.20593,3,1.4929154537356712e-13,10881,1.492815303377847e-13,1.4929154537356712e-13,6.430578595499801e-5,2.42164740914202,2
07EES0022U,16.73335,-92.63769,3,1.0454102433944867e-10,377943,1.0454096642315361e-10,1.0454102433944867e-10,6.416963612595423e-5,92.0871239462521,6
07EES0023T,16.73335,-92.63769,3,4.132617375504957e-11,48616,4.132608360816635e-11,4.132617375504957e-11,9.594917063274306e-5,308.6049300228521,12
07EES0026Q,17.14253,-92.72176,3,1.1941484894512024e-12,87005,1.1940284481460011e-12,1.1941484894512024e-12,1.1876441408480682e-4,9.880966502517186,5
07EES0027P,16.62589,-93.09471,3,5.609963748334883e-19,0,1.0648015137025405e-18,5.609963748334883e-19,8.160600620213629e-5,1.5430806348152448,1
07EES0028O,14.89047,-92.26063,3,6.010002662512764e-11,0,6.00998690371323e-11,6.010002662512764e-11,9.756296260926582e-5,969.5531858417743,7
07EES0029N,14.89047,-92.26063,3,1.2517844401628404e-10,10881,1.2517824785572926e-10,1.2517844401628404e-10,1.1467768684347862e-4,1565.9909345975625,10
07EES0035Y,16.09408,-93.75947,3,1.037306616086045e-9,14596,1.037306514713294e-9,1.037306616086045e-9,1.460449267600635e-4,102.08591807024129,7
07EES0041I,16.7508,-93.16005,3,3.399987644624532e-10,10971,3.399985724772612e-10,3.399987644624532e-10,7.048356041449175e-5,3492.2698613096036,11
07EES0042H,16.75025,-93.16063,3,3.455346200202678e-10,8783,3.4553448591676905e-10,3.455346200202678e-10,7.096840902053093e-5,3451.2177800359927,11
07EES0047C,15.06711,-92.08137,3,0,0,1.0388116255309295e-18,0,8.160600620213629e-5,1.5430806348152506,1
07EES0049A,15.14635,-92.42112,3,1.812173778264177e-18,4,3.775293746944715e-18,1.812173778264177e-18,9.15496878990147e-5,3.5734080402445074,3
07EES0054M,16.80216,-93.27136,3,4.665655171715431e-11,0,4.665645050849809e-11,4.665655171715431e-11,6.715919915756926e-5,109.19226857766473,4
07EES0055L,16.75209,-92.64048,3,2.257618369386454e-12,21761,2.257477112868339e-12,2.257618369386454e-12,1.543209687327154e-4,73.79808889917936,6
07EES0058I,16.71356,-92.98795,3,5.553108956498732e-11,10877,5.55309260340532e-11,5.553108956498732e-11,1.0892450401444436e-4,70.21239506246708,5
07EES0061W,16.23876,-92.13959,3,4.942847295771916e-11,46128,4.942817330455275e-11,4.942847295771916e-11,1.8156168180764412e-4,227.78009144805134,8
07EES0066R,15.36584,-92.24662,3,9.331150099486772e-18,15,1.1691950291113766e-18,9.331150099486772e-18,9.365939120313519e-5,2.4385404048502686,2
07EES0067Q,15.88367,-93.52703,3,4.594721272568808e-11,0,4.5947200905254894e-11,4.594721272568808e-11,3.0891010350226453e-5,1.7314538691514167,1
07EES0068P,16.33993,-92.56482,3,2.6778995274366226e-17,2,1.2227654340288414e-18,2.6778995274366226e-17,7.811697676177499e-5,2.227257162373838,2
07EES0069O,16.22381,-93.27639,3,2.2832161018651915e-10,57000,2.283215458891157e-10,2.2832161018651915e-10,1.0987028177397033e-4,15.909835846233333,4
07EES0072B,15.44439,-92.89783,3,4.4417581411021516e-11,97920,4.4417408342672736e-11,4.4417581411021516e-11,2.2177783266626457e-4,316.7972585674674,10
07EES0078W,14.92022,-92.37507,3,3.780800845874739e-13,21761,3.780662581458233e-13,3.780800845874739e-13,1.1346770740025975e-4,3.040105451195775,3
07EES0079V,15.07417,-92.19833,3,8.524781718609325e-10,10881,8.524781032645851e-10,8.524781718609325e-10,8.251777442982231e-5,23.014864310990596,3
07EES0080K,16.09408,-93.75947,3,1.345861514767328e-10,81886,1.3458606891906795e-10,1.345861514767328e-10,1.285811524570465e-4,75.77211396483085,7
07EES0082I,17.50892,-91.97709,3,7.879046509219695e-11,403,7.879037681052301e-11,7.879046509219695e-11,7.779721386967832e-5,30.445293309918,5
07EES0083H,17.16177,-92.90384,3,8.904165054773533e-11,21760,8.904158583089367e-11,8.904165054773533e-11,7.785391118369856e-5,403.37698075904973,3
07EES0087D,15.01087,-92.19552,3,4.870784494444219e-10,0,4.870783940609619e-10,4.870784494444219e-10,7.406680852912233e-5,55.995916771728325,4
07EES0093O,14.78113,-92.17977,3,2.1311822932865512e-11,32638,2.1311746491311067e-11,2.1311822932865512e-11,9.345577738913664e-5,14.47994462355817,4
07EES0099I,15.29969,-92.38052,3,4.028942088122591e-17,21,1.071306909420219e-17,4.028942088122591e-17,1.478422741176648e-4,3.8770808097005762,4
07EES0101G,15.45843,-92.27997,3,3.6660589502748385e-11,43515,3.666055622929122e-11,3.6660589502748385e-11,1.251403436242132e-4,3.8380535210840807,3
07EES0107A,16.70104,-93.10253,3,3.624396467639005e-10,0,3.624395893474803e-10,3.624396467639005e-10,8.328809378007876e-5,20.951334920718843,3
07EES0116I,16.22754,-93.90605,3,3.1630131880564115e-13,10881,3.162764904172873e-13,3.1630131880564115e-13,7.817874458182049e-5,3.653232361525417,3
07EES0117H,15.68268,-92.01643,3,1.0512063192304508e-12,36856,1.0511785158327946e-12,1.0512063192304508e-12,7.72209983877556e-5,6.62188092914405,4
07EES0118G,16.09639,-92.83333,3,1.5742114210567289e-12,21760,1.5741655693830812e-12,1.5742114210567289e-12,9.951914238309332e-5,2.2804021694837164,2
07EES0119F,16.75206,-93.09803,3,3.621813013045453e-10,3,3.6218109400406276e-10,3.621813013045453e-10,6.395194040825668e-5,333.288705411508,5
07EES0133Z,14.89022,-92.28836,3,3.470198950786378e-10,73942,3.470198202539247e-10,3.470198950786378e-10,7.439489982540721e-5,497.0607098588747,7
07EES0140I,15.13337,-92.46388,3,1.4446832983543293e-15,21760,1.4468305154837628e-15,1.4446832983543293e-15,7.236227222825906e-5,3.716147173842765,3
07EES0141H,16.77773,-93.11424,3,2.6454604383478665e-10,3725,2.6454591821562827e-10,2.6454604383478665e-10,9.562926208308457e-5,1646.0670805313616,8
07EES0145D,16.69699,-93.72918,3,6.625134318717305e-12,10881,6.625036228619891e-12,6.625134318717305e-12,1.401210608393242e-4,16.552317656850573,5
07EES0146C,15.85222,-91.98306,3,7.51159114963863e-13,32640,7.511261364168014e-13,7.51159114963863e-13,1.5586532986967426e-4,5.369805365277956,4
07EES0147B,16.76937,-93.15909,3,2.7760523728438045e-9,51005,2.7760521555871393e-9,2.7760523728438045e-9,1.1142461541811101e-4,4168.5305539766505,15
07EES0148A,16.31289,-91.97794,3,2.1627779287799207e-13,21761,2.1615419967142335e-13,2.1627779287799207e-13,1.517544130387066e-4,4.677346363184605,4
07EES0149Z,14.83214,-92.19179,3,1.0289144727905809e-11,0,1.0289098471488565e-11,1.0289144727905809e-11,6.027335841515775e-5,85.15469382392858,4
07EES0152N,17.43081,-93.09812,3,1.5500056164371406e-17,3,6.1069977472398896e-18,1.5500056164371406e-17,1.5659530919863663e-4,2.914577440175917,3
07EES0153M,14.72514,-92.42725,3,4.830003721549977e-10,48210,4.830003385529411e-10,4.830003721549977e-10,1.2599136755894386e-4,1908.7160003251279,6
07EES0154L,15.03866,-92.20508,3,7.118495809587026e-11,0,7.118488715629043e-11,7.118495809587026e-11,8.615037680107808e-5,541.6356648408741,3
07EES0155K,15.68003,-93.20249,3,2.7684899327475985e-13,43516,2.768207158125273e-13,2.7684899327475985e-13,1.0863451945248776e-4,4.267833430334347,4
07EES0156J,16.17856,-94.06285,3,1.843398583529274e-12,43512,1.8433760317868076e-12,1.843398583529274e-12,4.154047701548136e-5,2.361987031983078,2
07EES0157I,17.06553,-92.85623,3,1.2466459178534382e-11,21752,1.2466400393090594e-11,1.2466459178534382e-11,7.882660334468809e-5,25.868227634656495,2
07EES0158H,17.17216,-92.33072,3,8.557173590361077e-13,0,8.556319950241492e-13,8.557173590361077e-13,1.3683505826412394e-4,4.849994718293358,3
07EES0163T,16.80954,-93.27127,3,1.5242622090658083e-10,2471.25,1.5242611406944823e-10,1.5242622090658083e-10,8.781576406793327e-5,403.68471308174617,7
07EES0164S,15.72502,-93.30241,3,1.751229376900295e-14,10881,1.7485809002384096e-14,1.751229376900295e-14,9.640950565674256e-5,2.347909032942786,2
07EES0165R,17.30031,-92.42576,3,4.04994155050584e-15,10881,4.0506777818321975e-15,4.04994155050584e-15,1.1313099263327053e-4,2.2936135473611827,2
07EES0166Q,15.38778,-92.18611,3,2.946166327585129e-17,0,1.906380035063678e-18,2.946166327585129e-17,6.819452508421003e-5,1.5906097564064599,1
07EES0168O,16.69621,-93.02484,3,1.129876682390697e-9,0,1.1298766521922118e-9,1.129876682390697e-9,4.261807834240664e-5,206.9398499561684,2
07EES0170C,17.19804,-93.00853,3,1.8070735098779782e-17,0,1.8274932083338614e-18,1.8070735098779782e-17,5.5550898503722144e-5,1.5922373297341113,1
07EES0171B,17.17206,-92.68226,3,9.621047168493326e-14,10877,9.617041386674964e-14,9.621047168493326e-14,6.181387897704372e-5,2.561705265676163,2
07EES0173Z,15.21566,-92.57708,3,2.2271996801044907e-11,139410,2.2271786131835437e-11,2.2271996801044907e-11,1.7135883969986385e-4,51.77762589091345,6
07EES0174Z,14.91738,-92.25807,3,1.409428745233645e-10,21761,1.409427588009e-10,1.409428745233645e-10,1.425152164581217e-4,663.1123302852754,9
07EES0175Y,17.18832,-93.60579,3,1.3541167224111975e-11,22911,1.3540977966815944e-11,1.3541167224111975e-11,1.9124587858337512e-4,4.324369234635105,4
07EES0176X,16.75209,-92.64048,3,7.505435287909017e-12,32639,7.505342689708395e-12,7.505435287909017e-12,1.2043511543470647e-4,128.3169936549273,8
07EES0177W,17.07235,-92.85818,3,6.70931510935298e-12,10881,6.7092208840914675e-12,6.70931510935298e-12,1.272458966906545e-4,3.228628666863509,3
07EES0180J,17.50892,-91.97709,3,1.787640228636498e-9,61042,1.7876401720428743e-9,1.787640228636498e-9,8.809239566261328e-5,530.046742888185,8
07EES0181I,15.65681,-92.14543,3,4.171285990177104e-12,134642,4.171185793398453e-12,4.171285990177104e-12,1.9191350487870863e-4,60.38483781473592,6
07EES0182H,16.22381,-93.27639,3,1.1324975074080904e-10,0,1.132497042503851e-10,1.1324975074080904e-10,9.94703069420812e-5,15.342696633338328,4
07EES0183G,16.77773,-93.11424,3,1.7306479156479797e-10,11348,1.730646817733102e-10,1.7306479156479797e-10,8.72343851374245e-5,2090.596494249694,10
07EES0187C,16.77516,-93.08083,3,1.665885956149518e-10,1142,1.6658846382365542e-10,1.665885956149518e-10,6.69401926321579e-5,2028.9056805293892,10
07EES0188B,16.70104,-93.10253,3,1.0212925838713093e-10,10880,1.0212917977745654e-10,1.0212925838713093e-10,8.855352182804667e-5,323.82910126915993,6
07EES0189A,16.71356,-92.98795,3,2.823543511926156e-11,0,2.8235298437451537e-11,2.823543511926156e-11,8.076913233445912e-5,28.014960477850405,3
07EES0190Q,16.24082,-92.11026,3,3.1523346501443696e-11,0,3.1523261470609624e-11,3.1523346501443696e-11,7.351126952656652e-5,32.57287250110307,5
07EES0193N,17.36361,-93.38167,3,9.825650329215676e-11,21762,9.825639871105687e-11,9.825650329215676e-11,1.8424488071219937e-4,5.082345417904519,5
07EES0196K,17.19022,-93.10438,3,4.3867847682352986e-17,7,4.418736009852015e-18,4.3867847682352986e-17,1.0446000718482127e-4,2.2305126084592892,2
07EES0197J,16.75137,-93.15548,3,2.9908658426443476e-11,43512,2.9908625370290146e-11,2.9908658426443476e-11,5.281258913653237e-5,43.506228976178356,2
07ETV0006I,16.23665,-93.89036,3,2.1643290854682356e-13,10881,2.1639706686340571e-13,2.1643290854682356e-13,1.1268316998352037e-4,3.6532323615254634,3
07ETV0010V,16.47639,-94.08056,3,2.7262493411634133e-12,10881,2.7260886892582348e-12,2.7262493411634133e-12,1.2910256931016162e-4,2.5125001417331263,2
07ETV0013S,16.58046,-92.71564,3,2.4973932266624457e-13,0,2.4973979934238065e-13,2.4973932266624457e-13,2.3108468353314346e-5,1.6812760509031843,1
07ETV0014R,17.12925,-93.16293,3,2.0042059026917663e-10,32861,2.0042036290625968e-10,2.0042059026917663e-10,1.463852809176881e-4,14.879520130941746,6
07ETV0020B,15.69288,-92.61856,3,1.3030567777521105e-17,0,1.7493288813897375e-18,1.3030567777521105e-17,8.160600620213629e-5,1.543080634815236,1
07ETV0021A,15.80297,-92.74979,3,2.30476198488749e-12,0,2.3047493283242247e-12,2.30476198488749e-12,5.1019360003998645e-5,1.596654904583382,1
07ETV0027V,16.51861,-93.96194,3,3.617204782407503e-17,0,0,3.617204782407503e-17,8.160600620213629e-5,1.5430806348152406,1
07ETV0032G,16.09146,-92.81065,3,4.179983043412994e-13,10881,4.179536626682446e-13,4.179983043412994e-13,1.0395267698456615e-4,2.228873041003369,2
07ETV0033F,17.09243,-93.20823,3,3.795088638603717e-10,10881,3.795087140672607e-10,3.795088638603717e-10,7.822897151419515e-5,9.171009836560597,4
07ETV0035D,17.34382,-93.13101,3,6.810224307699736e-17,1,4.005429581382385e-18,6.810224307699736e-17,1.1910065770038644e-4,2.1781835566085794,2
07ETV0039Z,16.52556,-92.99222,3,7.429926224577539e-18,0,1.5021274554709494e-18,7.429926224577539e-18,8.160600620213629e-5,1.5430806348152588,1
07ETV0044L,16.76944,-92.92361,3,1.3294649521862699e-17,0,8.562812511735482e-19,1.3294649521862699e-17,6.285868045302443e-5,1.5890917783042946,1
07ETV0063Z,17.19041,-93.04496,3,2.1128709372876922e-17,7,5.322130608375556e-18,2.1128709372876922e-17,8.407147320186421e-5,2.230512608459313,2
07ETV0065Y,17.5928,-93.32491,3,0,0,1.0675808168588487e-18,0,8.160600620213629e-5,1.5430806348152515,1
07ETV0066X,16.74066,-93.10022,3,6.945068710216153e-10,65256,6.945067703885419e-10,6.945068710216153e-10,3.57492122758068e-5,58.73703253507785,3
07ETV0067W,17.20307,-93.01428,3,3.1602024772190767e-17,7,3.5110166368890065e-18,3.1602024772190767e-17,9.129068115967306e-5,2.2828416603100345,2
07ETV0070J,16.60878,-92.71349,3,3.617204782407503e-17,0,0,3.617204782407503e-17,8.160600620213629e-5,1.5430806348152524,1
07ETV0072H,17.19087,-93.10654,3,3.965960187905668e-17,12,2.527627625347552e-18,3.965960187905668e-17,8.595512317457563e-5,2.3319980602459363,2
07ETV0075E,17.34139,-93.55333,3,5.127532837490278e-12,20700,5.127523870603606e-12,5.127532837490278e-12,5.1590901067475116e-5,3.3478397448318753,3
07ETV0076D,17.15028,-93.42167,3,3.617204782407503e-17,0,0,3.617204782407503e-17,8.160600620213629e-5,1.543080634815238,1
07ETV0077C,16.82806,-93.43667,3,5.863839927117511e-13,0,5.863834110468678e-13,5.863839927117511e-13,3.956514312069885e-5,1.6042798020241136,1
07ETV0078B,16.74632,-93.13365,3,1.74917310621449e-9,1025010,1.749173001041922e-9,1.74917310621449e-9,9.774152613403702e-5,2815.4171502678687,17
07ETV0082O,16.14006,-93.00417,3,1.4027835313064647e-13,21761,1.402611150988476e-13,1.4027835313064647e-13,1.2687453214629214e-4,3.0262753570903866,3
07ETV0100N,17.84944,-91.99972,3,7.825339360041193e-10,0,7.82533793932143e-10,7.825339360041193e-10,8.023393381920203e-5,2.1242628871338236,1
07ETV0102L,17.49692,-93.00422,3,2.6825677687337796e-13,0,2.682540295413873e-13,2.6825677687337796e-13,2.105523159889509e-5,2.00923320598027,1
07ETV0107G,16.12972,-93.95861,3,1.2787918852259837e-11,54385,1.2787777244444826e-11,1.2787918852259837e-11,1.3465508171634852e-4,2.441099737331861,2
07ETV0108F,17.22194,-91.78917,3,9.735458489819027e-14,21761,9.721164218978613e-14,9.735458489819027e-14,1.5905021841094646e-4,3.093085584319045,3
07ETV0113R,16.10333,-93.97806,3,2.750010882699868e-11,119611,2.7499950156430936e-11,2.750010882699868e-11,1.1817470530550715e-4,5.75694790089454,3
07ETV0116O,16.67611,-92.48917,3,0,0,8.713203939965148e-19,0,8.160600620213629e-5,1.5430806348152457,1
07ETV0119L,17.02583,-91.41778,3,1.7444278781195227e-17,0,1.765836057125209e-18,1.7444278781195227e-17,8.160600620213629e-5,1.543080634815247,1
07ETV0120A,16.81167,-92.17028,3,2.897379021090298e-13,1.75,2.8970112969876394e-13,2.897379021090298e-13,5.079103248733586e-5,4.906320835589126,2
07ETV0127U,17.6125,-92.07917,3,3.832535712181923e-12,0,3.8325207438904754e-12,3.832535712181923e-12,4.112701641676661e-5,2.180963347809507,1
07ETV0133E,17.43528,-91.93194,3,3.706877194226279e-12,21761,3.70684547359923e-12,3.706877194226279e-12,1.2203630698475188e-4,5.073061198453482,3
07ETV0135C,17.35694,-92.64083,3,7.523140363329086e-17,2,0,7.523140363329086e-17,1.0790782164469336e-4,2.227257162373835,2
07ETV0139Z,17.41111,-92.16444,3,3.008580444216012e-11,32639,3.008522416281513e-11,3.008580444216012e-11,1.8515385976930804e-4,6.071987328765918,4
07ETV0141N,17.71972,-93.34861,3,7.14904200654337e-12,10881,7.149022939708851e-12,7.14904200654337e-12,9.045352709103828e-5,2.2857119331835505,2
07ETV0152T,17.2836,-92.31369,3,4.241114723212844e-18,0,1.4768669532143672e-18,4.241114723212844e-18,8.160600620213629e-5,1.5430806348152497,1
07ETV0154R,16.54722,-93.81361,3,7.622124823610351e-12,0,7.622124103911007e-12,7.622124823610351e-12,4.570371463383296e-5,1.6032694494985678,1
07ETV0159M,15.66444,-92.00444,3,7.554680969579057e-14,10881,7.554703236111705e-14,7.554680969579057e-14,7.72981341921118e-5,2.4001456067203266,2
07ETV0162Z,15.43555,-92.11327,3,2.6807632720663863e-17,2,2.831854363831178e-18,2.6807632720663863e-17,9.501748732002204e-5,2.2272571623738253,2
07ETV0164Y,15.60667,-92.06528,3,3.224942322893475e-17,0,2.770787708386661e-18,3.224942322893475e-17,7.856569424803001e-5,1.5922093286312877,1
07ETV0176C,16.30762,-92.12311,3,7.076738503624498e-13,0,7.076481339791829e-13,7.076738503624498e-13,5.1070776535338694e-5,1.590916007942977,1
07ETV0184L,15.69778,-92.16361,3,3.801927775464645e-15,0,3.797032739733493e-15,3.801927775464645e-15,7.981087211847769e-5,1.5981711530305993,1
07ETV0189G,16.29047,-91.90581,3,3.617204782407503e-17,0,0,3.617204782407503e-17,8.160600620213629e-5,1.543080634815239,1
07ETV0193T,16.63611,-92.99667,3,1.9878769502541727e-12,0,1.987875133402628e-12,1.9878769502541727e-12,2.128031951303097e-5,5.887067203848812,1
07ETV0197P,15.31972,-92.32889,3,5.581760213984238e-18,7,2.175333044946012e-18,5.581760213984238e-18,8.586907116222352e-5,2.3369146003112045,2
07ETV0202K,15.29389,-92.44417,3,1.2076911652025974e-17,0,1.760512681776612e-18,1.2076911652025974e-17,8.160600620213629e-5,1.5430806348152422,1
07ETV0204I,15.45253,-92.30531,3,7.1119880337389305e-12,21760,7.111959004730381e-12,7.1119880337389305e-12,9.003052834977158e-5,2.33623266592808,2
07ETV0205H,15.44796,-92.22684,3,2.7680005775225783e-18,0,1.0895224767704598e-18,2.7680005775225783e-18,8.160600620213629e-5,1.543080634815251,1
07ETV0224W,16.17672,-94.06089,3,1.840843337773613e-13,32637,1.8404450553802357e-13,1.840843337773613e-13,7.7539804719453e-5,2.2815157506161112,2
07ETV0227T,15.50325,-92.95034,3,7.336011302292454e-12,21761,7.335837184320174e-12,7.336011302292454e-12,1.3028961677227424e-4,9.272484861705978,4
07ETV0236A,16.13279,-94.03447,3,5.1702642208609736e-14,21760,5.16468184997917e-14,5.1702642208609736e-14,1.2273922967685104e-4,2.2780159669975353,2
07ETV0240N,15.33722,-92.52556,3,2.4356672356204892e-11,0,2.435663464566046e-11,2.4356672356204892e-11,9.080507685472352e-5,3.135171417858376,2
07ETV0244J,14.73861,-92.16917,3,6.094172435897779e-12,0,6.093999887290089e-12,6.094172435897779e-12,1.354049985383115e-4,8.412219388869737,3
07ETV0245I,14.74917,-92.19917,3,3.409712357845265e-12,0,3.409503358721382e-12,3.409712357845265e-12,1.2604813066794765e-4,2.516517634506277,2
07ETV0253R,15.34833,-92.97944,3,1.1114800232204054e-17,0,1.739719314037758e-18,1.1114800232204054e-17,8.160600620213629e-5,1.5430806348152488,1
07ETV0259L,14.81778,-92.49639,3,7.071322004523421e-12,0,7.071250215322513e-12,7.071322004523421e-12,1.0305711707291661e-4,11.512932579103753,2
07ETV0261Z,15.54167,-93.01722,3,1.369839466743465e-12,0,1.3698294510464696e-12,1.369839466743465e-12,3.920929149460306e-5,1.6631398053101627,1
07ETV0271G,16.00083,-93.74861,3,1.2468465676560998e-17,0,5.703900637256661e-19,1.2468465676560998e-17,6.848287817776179e-5,1.5890917783042768,1
07ETV0282M,14.88858,-92.22875,3,9.800973287840848e-12,0,9.800925325133531e-12,9.800973287840848e-12,4.221039260093235e-5,169.99480252841852,3
07ETV0288G,15.10556,-92.45167,3,3.352381344923357e-17,4,4.7704048395318186e-18,3.352381344923357e-17,1.2132416551485012e-4,2.305658541651609,2
07ETV0302J,17.40639,-93.52972,3,8.329782719003529e-12,31541,8.329776671287256e-12,8.329782719003529e-12,4.005601092281733e-5,2.5732225081888798,2
07ETV0309C,16.52469,-92.44434,3,6.25640045238497e-17,0,2.8584403387982493e-18,6.25640045238497e-17,7.101591379418475e-5,2.7082716604245363,2
07ETV0312Q,17.53417,-92.09306,3,3.84730999106255e-11,21761,3.8473048735200086e-11,3.84730999106255e-11,1.2605812302688e-4,25.18214364079537,6
07ETV0328R,17.30972,-92.05111,3,1.086238025353174e-12,43512,1.0862026190845421e-12,1.086238025353174e-12,9.705749271842874e-5,2.377230376176751,2
07ETV0330F,17.36139,-91.55167,3,9.831275445111249e-18,0,1.7082911821696768e-18,9.831275445111249e-18,8.160600620213629e-5,1.5430806348152473,1
07ETV0334B,16.91144,-92.09645,3,6.355635790591726e-13,54394,6.355357611545197e-13,6.355635790591726e-13,1.302618918790146e-4,7.644169598017049,6
07ETV0335A,16.99222,-93.43139,3,4.996785382008535e-12,10881,4.996681561995774e-12,4.996785382008535e-12,1.0972935036195647e-4,2.875050177962158,2
07ETV0336Z,17.47306,-93.48667,3,1.54237134502824e-10,53274,1.5423707321164774e-10,1.54237134502824e-10,1.2547507804548427e-4,6.287935488137935,5
07ETV0347F,15.08472,-92.25153,3,2.138355016889173e-17,1,4.75453262479032e-18,2.138355016889173e-17,1.1910065770038644e-4,2.1781835566085674,2
07ETV0351S,15.82174,-93.43702,3,5.996178121721543e-10,10881,5.99617748718758e-10,5.996178121721543e-10,1.3084996555558595e-4,10.096248302312038,4
07ETV0359K,16.74736,-93.15671,3,6.186189231536199e-11,44090,6.186183396584034e-11,6.186189231536199e-11,8.015001943050732e-5,504.01308256466973,9
07ETV0361Z,16.76407,-93.07329,3,1.358895051096466e-10,31950,1.358894268151066e-10,1.358895051096466e-10,6.526100991000555e-5,297.51192118752385,6
07ETV0373D,16.59786,-93.35211,3,1.2076911652025974e-17,0,1.773149291849147e-18,1.2076911652025974e-17,8.160600620213629e-5,1.5430806348152362,1
07ETV0377Z,16.60667,-93.56194,3,1.725384905337363e-12,10881,1.7252480185242918e-12,1.725384905337363e-12,1.3838669909327359e-4,2.3627156744173834,2
07ETV0383K,16.79968,-93.26886,3,1.7704592253250854e-10,36954,1.7704575601337575e-10,1.7704592253250854e-10,1.4598932963192558e-4,266.1838653362566,7
07ETV0385I,17.00167,-93.46028,3,3.771598039489344e-11,37455,3.771588910565711e-11,3.771598039489344e-11,1.2386112854369057e-4,62.06322170947824,5
07ETV0392S,14.92083,-92.34901,3,7.393319463643312e-12,0,7.393262691011756e-12,7.393319463643312e-12,7.83809957389921e-5,11.30302363313164,2
07ETV0394Q,14.82845,-92.32745,3,2.3073471699045487e-11,0,2.307344852173969e-11,2.3073471699045487e-11,6.83880660704503e-5,2.5705793122217444,1
07ETV0395P,17.7825,-91.78694,3,4.173514332509824e-10,0,4.1735135962686805e-10,4.173514332509824e-10,4.850385180441536e-5,2.1242628871338325,1
07ETV0398M,14.64083,-92.30194,3,3.617204782407503e-17,0,0,3.617204782407503e-17,8.160600620213629e-5,1.5430806348152417,1
07ETV0412P,16.34361,-92.19861,3,3.5520187955528445e-12,10881,3.5519101558817522e-12,3.5520187955528445e-12,9.136441318839134e-5,2.2520415545543604,2
07ETV0416L,17.79806,-93.03778,3,1.1241673340422287e-9,0,1.1241665631177192e-9,1.1241673340422287e-9,1.0656380038311348e-4,725.4821752282455,1
07ETV0418J,16.06917,-92.28639,3,3.617204782407503e-17,0,0,3.617204782407503e-17,8.160600620213629e-5,1.5430806348152497,1
07ETV0430E,16.45676,-93.82725,3,9.181830585498918e-11,10881,9.181829655192556e-11,9.181830585498918e-11,7.873603224352767e-5,2.9466253331375065,2
07ETV0437Y,17.22584,-93.16383,3,6.5285483341026585e-12,10881,6.528525713117151e-12,6.5285483341026585e-12,8.44484908260349e-5,4.762395453590151,2
07ETV0442J,17.26638,-91.60824,3,0,0,7.892266109334841e-19,0,8.160600620213629e-5,1.5430806348152368,1
07ETV0449C,15.87586,-93.46753,3,3.882222633954547e-10,0,3.8822222551824397e-10,3.882222633954547e-10,9.600648367676414e-5,2.4340883096215835,2
07ETV0451R,16.26917,-93.63861,3,5.61311097095146e-11,0,5.613107873652914e-11,5.61311097095146e-11,4.691356365350923e-5,1.946021525686109,1
07ETV0456M,16.72913,-92.63763,3,6.401139159177686e-12,43512,6.400998844603953e-12,6.401139159177686e-12,1.1706610775474606e-4,244.92781063872215,10
07ETV0461Y,16.76315,-93.10675,3,3.0429436891968568e-9,11685.75,3.042943594938625e-9,3.0429436891968568e-9,6.035901782098468e-5,884.7730908538787,6
07ETV0469Q,16.84341,-93.01497,3,1.3294649521862699e-17,0,7.216628172948181e-19,1.3294649521862699e-17,6.285868045293048e-5,1.5890917783042844,1
07ETV0473C,17.39694,-91.81389,3,2.7680005775225783e-18,0,1.1539383641084305e-18,2.7680005775225783e-18,8.160600620213629e-5,1.5430806348152473,1
07ETV0477Z,15.68502,-93.20865,3,3.4063666427500004e-13,0,3.405970700739708e-13,3.4063666427500004e-13,9.297198228668274e-5,2.5916921066041,2
07ETV0479X,17.16871,-92.68328,3,2.69438833307333e-14,0,2.6898432540153805e-14,2.69438833307333e-14,9.101056025750208e-5,2.3686120938552877,2
07ETV0492R,14.71361,-92.26056,3,1.3543803480344721e-17,0,1.891926021655121e-18,1.3543803480344721e-17,8.160600620213629e-5,1.543080634815243,1
07ETV0506D,15.58378,-92.15645,3,7.429926224577539e-18,0,1.4822686320631943e-18,7.429926224577539e-18,8.160600620213629e-5,1.5430806348152455,1
07ETV0511P,15.8275,-92.68556,3,2.508738614667824e-15,0,2.4916070279101083e-15,2.508738614667824e-15,3.9022612156702695e-5,1.5906368569695888,1
07ETV0515L,17.44207,-92.95241,3,1.0043932311368958e-16,3,9.753772064734361e-18,1.0043932311368958e-16,1.5659530919863665e-4,2.9145774401759033,3
07ETV0533A,17.21778,-93.34306,3,2.521641056842881e-11,2,2.5216319795946824e-11,2.521641056842881e-11,8.387333278303647e-5,2.5498019164821555,2
07ETV0559I,17.47389,-93.47969,3,1.5923595013595252e-10,10881,1.592358999776167e-10,1.5923595013595252e-10,1.2534753550771078e-4,3.9189488020622565,3
07ETV0567R,17.39167,-92.10444,3,3.978704364742964e-12,0,3.978544639751988e-12,3.978704364742964e-12,4.6862610742082924e-5,1.5944859787439811,1
07ETV0583I,17.09028,-92.37028,3,1.4610737646152175e-14,10881,1.4587690911238106e-14,1.4610737646152175e-14,1.2061698892550684e-4,2.240925650982,2
07ETV0594O,15.52972,-92.35444,3,4.069933350129754e-18,0,2.0185045361049687e-19,4.069933350129754e-18,3.2370201333376054e-5,1.6413380224473484,1
07ETV0609Z,15.08306,-92.12556,3,2.3621783900272615e-11,0,2.362153226925954e-11,2.3621783900272615e-11,9.020287931478246e-5,7.368017283927588,1
07ETV0625R,17.00472,-92.74333,3,1.2076911652025974e-17,0,1.799673317986892e-18,1.2076911652025974e-17,8.160600620213629e-5,1.543080634815247,1
07ETV0629N,16.50856,-92.31115,3,6.25640045238497e-17,0,2.6032174355228426e-18,6.25640045238497e-17,7.101591379416151e-5,2.708271660424502,2
07ETV0632A,17.05778,-93.35056,3,5.221472219326798e-11,0,5.221467143594185e-11,5.221472219326798e-11,6.721433173771547e-5,1.6583538428037967,1
07ETV0638V,17.06778,-91.92806,3,3.042565056118048e-13,32637,3.04168883737601e-13,3.042565056118048e-13,9.242180815460024e-5,7.767472277123217,3
07ETV0646D,17.25389,-92.63889,3,4.406396652650235e-15,0,4.389668353233741e-15,4.406396652650235e-15,3.8795533542093485e-5,1.6458725652486241,1
07ETV0655L,17.11917,-91.38278,3,7.429926224577539e-18,0,1.409503979825634e-18,7.429926224577539e-18,8.160600620213629e-5,1.5430806348152535,1
07ETV0674Z,15.95139,-93.80972,3,1.0206499655012582e-17,0,8.036083145193128e-19,1.0206499655012582e-17,5.7234482728200127e-5,1.5890917783042624,1
07ETV0683H,17.38694,-92.86583,3,6.645450512023342e-17,1,4.3232634999269056e-18,6.645450512023342e-17,1.1910065770038644e-4,2.1781835566085643,2
07ETV0686E,15.51278,-92.83278,3,8.393761323003368e-13,0,8.393518809509775e-13,8.393761323003368e-13,3.939242862644185e-5,1.7209082985589965,1
07ETV0697K,17.27083,-92.79944,3,9.122078829655119e-17,0,0,9.122078829655119e-17,6.577391888327647e-5,1.6921777119749157,1
07ETV0708Z,15.56833,-92.34556,3,1.855559228479947e-17,8,4.050035992513661e-18,1.855559228479947e-17,7.959625322767986e-5,3.0192343144275258,3
07ETV0725Q,15.16306,-92.40611,3,7.090929395232984e-18,0,7.104248244925743e-18,7.090929395232984e-18,8.979511654438305e-5,1.5927583133892602,1
07ETV0731A,15.36556,-92.31222,3,4.241114723212844e-18,0,1.2366646399865952e-18,4.241114723212844e-18,8.160600620213629e-5,1.543080634815258,1
07ETV0737V,17.38516,-92.57476,3,6.315108401265162e-17,2,0,6.315108401265162e-17,9.891287859935842e-5,2.2272571623738404,2
07ETV0762U,17.30056,-92.89028,3,5.682598523942768e-17,0,0,5.682598523942768e-17,4.5699037150937834e-5,1.6921777119749195,1
07ETV0770C,17.12306,-92.13667,3,2.772135414743215e-15,0,2.733951386864092e-15,2.772135414743215e-15,9.022664214905802e-5,2.785135584765603,2
07ETV0791P,17.50583,-92.39806,3,3.617204782407503e-17,0,0,3.617204782407503e-17,8.160600620213629e-5,1.543080634815247,1
07ETV0793N,17.46694,-92.35111,3,2.9802365595525385e-11,10881,2.980224371499042e-11,2.9802365595525385e-11,1.0708172845157369e-4,5.0798080379982675,3
07ETV0804C,15.57694,-92.48778,3,1.1407307813944817e-11,10881,1.1407274661619149e-11,1.1407307813944817e-11,9.506012368860587e-5,2.781816158484165,2
07ETV0810N,15.75833,-92.44917,3,0,0,7.965044134224502e-19,0,8.16060062021362e-5,1.5430806348152393,1
07ETV0815I,17.10056,-93.85723,3,1.1114800232204054e-17,0,1.7349338906724554e-18,1.1114800232204054e-17,8.160600620213629e-5,1.543080634815245,1
07ETV0817G,17.23841,-93.31126,3,4.955701807685845e-17,1,4.916692755999489e-18,4.955701807685845e-17,1.1910065770038644e-4,2.1781835566085763,2
07ETV0838T,16.98333,-92.94028,3,1.871041258910754e-13,0,1.8709957340519466e-13,1.871041258910754e-13,3.5847246299674474e-5,1.60264413776773,1
07ETV0870B,16.13528,-91.49056,3,0,0,9.543304160606144e-19,0,8.160600620213629e-5,1.5430806348152366,1
07ETV0896J,16.72913,-92.63763,3,2.3976108310991443e-12,12514,2.3975404911981357e-12,2.3976108310991443e-12,5.816392473841986e-5,77.24856333229307,5
07ETV0935V,17.30856,-92.81902,3,2.660327962940395e-16,9,0,2.660327962940395e-16,1.9156423091028059e-4,3.8178946477996853,4
07ETV0942E,17.49639,-92.51278,3,1.2076911652025974e-17,0,1.808249723761446e-18,1.2076911652025974e-17,8.160600620213629e-5,1.5430806348152402,1
07ETV0958F,17.39167,-93.30725,3,8.390501191929262e-9,43425,8.39050117953144e-9,8.390501191929262e-9,3.0495214804310632e-5,241.0755218969987,2
07ETV0965P,17.83722,-93.27694,3,6.040904618160788e-10,10881,6.040904069395234e-10,6.040904618160788e-10,9.332993400253505e-5,37.11529125134211,3
07ETV0973Y,15.76528,-92.64389,3,1.4162329013033293e-12,10881,1.4162062208612102e-12,1.4162329013033293e-12,1.0373734522804883e-4,2.2305356871671806,2
07ETV0979S,15.80361,-92.40833,3,3.617204782407503e-17,0,0,3.617204782407503e-17,8.160600620213629e-5,1.5430806348152437,1
07ETV0998G,17.4755,-91.72082,3,3.477928611226485e-10,0,3.477928000485789e-10,3.477928611226485e-10,4.246002665874171e-5,2.124262887133812,1
07ETV1042U,17.11361,-93.37972,3,3.916104210251699e-11,0,3.916100361800472e-11,3.916104210251699e-11,5.347097403587996e-5,1.6583538428037965,1
07ETV1048O,15.68806,-92.12917,3,6.479664518771921e-17,4,4.802094106243807e-18,6.479664518771921e-17,9.54040643593919e-5,2.281157474621351,2
07ETV1066D,17.0994,-93.66443,3,1.0682469199670096e-11,0,1.0682435387934332e-11,1.0682469199670096e-11,4.986131623130411e-5,1.9574776893470158,1
07ETV1244Q,16.77307,-93.09846,3,1.8021797495509218e-10,10881,1.8021766194063457e-10,1.8021797495509218e-10,1.5166454415947318e-4,414.34206095395194,6
07ETV1281U,16.71194,-92.13417,3,1.8752877513604148e-14,10881,1.8730145288442804e-14,1.8752877513604148e-14,9.101104341583404e-5,2.5070886291782326,2
07ETV1302Q,16.92833,-92.82611,3,6.509456188718623e-11,0,6.509413881103348e-11,6.509456188718623e-11,9.642715767055798e-5,3.3156567388394387,2
07PES0002M,16.76061,-93.16372,3,6.846195115017853e-11,19518,6.846185315562159e-11,6.846195115017853e-11,8.05382822658141e-5,76.16883520194678,5
07PES0003L,14.91626,-92.25215,3,9.206857134306518e-11,0,9.206845276889008e-11,9.206857134306518e-11,1.3748649625590698e-4,396.36307803707547,8
07PES0014R,16.23417,-92.11428,3,7.627001462558955e-10,10881,7.627000845678409e-10,7.627001462558955e-10,8.845452359189642e-5,18.915124595219257,5
07PES0020B,16.7589,-93.08025,3,2.0719348190760027e-9,4313,2.0719346723375477e-9,2.0719348190760027e-9,6.42996149172638e-5,1369.3385349663831,7
07PES0024Y,16.73977,-92.63694,3,1.9190908745562665e-9,58739,1.919090824554749e-9,1.9190908745562665e-9,5.5838886572324353e-5,115.99476188942577,5
07PES0032G,14.90005,-92.25189,3,4.740813670171016e-11,11947,4.7408085931039963e-11,4.740813670171016e-11,7.345602546090412e-5,737.8860700073263,8
07PES0043M,16.76193,-93.132320000000007,3,1.5496092016108256e-9,144839,1.549608682708754e-9,1.5496092016108256e-9,2.0982155486181435e-4,4254.825093794975,17
07PES0044L,16.74577,-93.08741,3,2.2290560170433922e-10,3,2.2290545173191931e-10,2.2290560170433922e-10,6.525808748663792e-5,372.54401677290247,6
07PES0084M,16.75787,-93.12098,3,2.1691554403900226e-9,57566.75,2.1691551443359503e-9,2.1691554403900226e-9,1.4425751228229014e-4,5383.030886713856,17
07PES0120A,16.23344,-92.13797,3,1.0918078760887677e-9,0,1.0918078194102444e-9,1.0918078760887677e-9,7.288146274796906e-5,5.385875183046585,2
07PES0128T,14.89526,-92.27605,3,5.029580501126142e-11,97849,5.029577723455999e-11,5.029580501126142e-11,4.6427085568657074e-5,596.7420484394496,6
07PES0153S,17.17888,-92.90902,3,6.212572963994828e-12,0,6.2125594494459994e-12,6.212572963994828e-12,6.226838866546321e-5,4.91895820254031,2
07PES0183M,16.75905,-93.16188,3,2.902877393470803e-10,22022,2.9028736168760847e-10,2.902877393470803e-10,1.5318805187429702e-4,882.264166793638,11
07PES0187I,14.93027,-92.25147,3,3.72999482819447e-11,0,3.7299845717457764e-11,3.72999482819447e-11,8.046585260111584e-5,39.70212253814209,2
07PES0189G,16.74082,-93.09471,3,2.482757288541954e-10,0,2.4827558762883155e-10,2.482757288541954e-10,5.199033515202146e-5,516.1354097482176,4
07PES0191V,16.73801,-93.08847,3,9.231788674222066e-10,5652,9.231787291222406e-10,9.231788674222066e-10,7.116677925834914e-5,2349.5253213054575,10
07PES0192U,17.51158,-93.11401,3,9.141481274376201e-13,0,9.141321962763541e-13,9.141481274376201e-13,7.222398021813488e-5,2.520312019677788,2
07PES0193T,16.71977,-92.66069,3,7.092185839339482e-11,0,7.092184422414559e-11,7.092185839339482e-11,9.837636954428155e-5,5.406452690974652,3
07PES0194S,16.75887,-93.16957,3,1.1872181219383e-9,48610,1.187217883089771e-9,1.1872181219383e-9,1.1679493327898463e-4,3426.4473870812863,15
07PES0198O,16.75797,-93.08491,3,2.5562767593179563e-9,61705,2.556276467638308e-9,2.5562767593179563e-9,1.3790730896544808e-4,5948.970767632798,18
07PES0204I,14.88331,-92.25036,3,2.5166593412376755e-11,10749,2.5166548895962144e-11,2.5166593412376755e-11,5.861830643777076e-5,290.4142784245744,5
07PES0205H,16.7387,-92.65044,3,8.141453556973365e-12,0,8.141448721271831e-12,8.141453556973365e-12,4.966783650829663e-5,3.075639601916009,2
07PES0211S,16.74638,-93.19253,3,4.823679248012252e-11,10883,4.8236639051755073e-11,4.823679248012252e-11,9.17422538686778e-5,30.71626520813712,5
