name,lat,lon,grupo,authority,betweenness,eigen,hub,pagerank,subgraph,degree
12DES0017V,17.00388,-99.78341,539,1.0754157690023954e-5,69,1.0754157690043207e-5,1.0754157690023954e-5,0.018863730880158015,2.2345420792796653,2
12DES0026C,16.8753,-99.90585,539,0.0053024280781601065,551,0.005302428078174196,0.0053024280781601065,0.013568902277474053,18.196191341785244,6
12DES0031O,16.89259,-99.95096,539,0.0018724644578271674,386,0.001872464457827359,0.0018724644578271674,0.015500474185911078,7.23503623235801,5
12DES0032N,16.7494,-99.74077,539,0.07174200382747432,0,0.07174200382747446,0.07174200382747432,0.006157902686138152,1.8656358125416292,1
12DES0034L,16.86324,-99.90789,539,2.482883450740454e-4,137,2.482883450743542e-4,2.482883450740454e-4,0.016058291802535304,5.567622373561494,4
12DES0036J,16.8644,-99.86514,539,0.001014809911153492,69,0.0010148099111550427,0.001014809911153492,0.012540861872120232,6.281036075977985,3
12DES0037I,16.89923,-99.83316,539,1.292747027511637e-4,0,1.2927470275128864e-4,1.292747027511637e-4,0.009618014970513929,2.9490892045490407,2
12DES0040W,17.01875,-100.08519,539,0.022445604308527756,0,0.022445604308599463,0.022445604308527756,0.013596444280611521,2.6463960881854645,2
12DES0047P,16.87177,-99.87914,539,0.0019243715037178361,110,0.0019243715037195737,0.0019243715037178361,0.016728193643293542,14.827576247359488,5
12DES0057W,16.85127,-99.81821,539,2.679771411176982e-4,279,2.679771411181932e-4,2.679771411176982e-4,0.019104706467260604,5.7714834103793065,5
12DES0079H,16.86092,-99.87189,539,0.004239243866919801,238,0.004239243866929803,0.004239243866919801,0.01937034662797547,29.184438360379673,7
12DES0099V,16.89571,-99.83003,539,0.0010040524815138412,136,0.001004052481516459,0.0010040524815138412,0.01700187105558293,6.858767469348205,4
12DES0154Y,16.88922,-99.82715,539,0.011375705746772269,1169,0.011375705746772985,0.011375705746772269,0.020258058224812997,18.540709777330612,9
12DES0163F,16.86917,-99.88609,539,0.006259764711341137,239,0.006259764711352427,0.006259764711341137,0.03267537921893605,46.6527694679451,10
12DES0172N,16.87446,-99.89718,539,0.027421047423438122,194,0.027421047423441144,0.027421047423438122,0.026946630424629945,36.67084188018458,8
12DES0175K,16.91004,-99.81534,539,4.366048800955849e-4,30,4.366048800963266e-4,4.366048800955849e-4,0.012415560660196603,4.137376228240151,3
12DES0202R,16.87523,-99.88051,539,0.0022600381157641845,0,0.0022600381157646394,0.0022600381157641845,0.02351636030287437,2.5871099231092125,2
12DES0204P,16.87624,-99.88049,539,0.001275731242578585,0,0.0012757312425791655,0.001275731242578585,0.007129269642812416,2.009280833584441,1
12DES0211Z,16.87523,-99.88051,539,0.0015863153598303238,93,0.0015863153598310478,0.0015863153598303238,0.009313394806619047,5.132539566322814,3
12DES0212Y,16.87523,-99.88051,539,0.005415518940986971,139,0.005415518941001436,0.005415518940986971,0.02285620723736356,15.33949918005787,6
12DST0001M,16.87326,-99.89101,539,0.004733757304067901,615,0.004733757304079916,0.004733757304067901,0.023052965288740932,41.88432211480327,10
12DST0005I,16.86109,-99.81005,539,8.105617182998406e-5,0,8.105617183012517e-5,8.105617182998406e-5,0.011921977541328253,3.1209964732039293,2
12DST0015P,16.96288,-100.00403,539,2.97283248364603e-4,0,2.97283248364628e-4,2.97283248364603e-4,0.00455309739164653,1.8447195674795638,1
12DST0029S,17.01068,-100.08586,539,0.05418422130185738,137,0.054184221301857495,0.05418422130185738,0.02374666491135795,4.208490767898207,4
12DST0077B,16.8894,-99.83392,539,0.00190222406016122,216,0.0019022240601666203,0.00190222406016122,0.02857301269928513,12.989178255480066,8
12DST0086J,16.90437,-99.84924,539,0.0024338121447994897,326,0.0024338121448051957,0.0024338121447994897,0.024306216134715574,7.564306760757673,6
12DST0101L,16.77911,-99.78106,539,1,69,1,1,0.01939149966194944,2.517085898993994,2
12DST0112R,16.86009,-99.84525,539,0.001869954708072425,69,0.0018699547080739975,0.001869954708072425,0.018742902029714126,6.171929341036724,3
12DST0151T,16.85586,-99.91842,539,3.7119149296316355e-4,69,3.711914929642019e-4,3.7119149296316355e-4,0.01830977891948433,4.117497109482396,3
12DST0152S,16.81142,-99.81962,539,2.607470455878558e-4,35,2.607470455879268e-4,2.607470455878558e-4,0.007304027486419868,2.726633036933691,2
12DST0171G,16.82279,-99.72686,539,8.948871340960195e-4,0,8.948871340974941e-4,8.948871340960195e-4,0.016241962528138573,1.666851281981506,1
12DST0215N,16.85601,-99.81666,539,2.019627088647433e-4,341,2.0196270886498085e-4,2.019627088647433e-4,0.019182624846156904,5.002629939402801,4
12DST0219J,16.90581,-99.82828,539,3.7119225161747377e-4,0,3.71192251617619e-4,3.7119225161747377e-4,0.008998010618955457,3.1461116056539367,2
12DST0253Q,16.79552,-99.79995,539,0.32630040573523905,551,0.32630040573628155,0.32630040573523905,0.025047185175232578,8.746307015405968,6
12PES0006U,16.83413,-99.91588,539,0.0011662779175320884,213,0.0011662779175331374,0.0011662779175320884,0.03033913574181513,15.08611448466617,7
12PES0007T,16.8682,-99.86446,539,8.986857956324364e-4,27,8.986857956333125e-4,8.986857956324364e-4,0.01084385956498349,10.882834764016392,4
12PES0040A,16.86657,-99.89321,539,1.4628147489006066e-4,0,1.4628147489035605e-4,1.4628147489006066e-4,0.011312282607994032,1.7603923176421563,1
12PES0054D,16.87466,-99.86915,539,0.004513475098420816,144,0.004513475098431218,0.004513475098420816,0.01637921294270734,25.824849003195414,6
12PES0076P,16.90094,-99.83137,539,8.54852928376273e-4,107,8.548529283779253e-4,8.54852928376273e-4,0.010887247370987693,4.963862574232906,3
12PES0107S,16.86832,-99.86438,539,0,0,5.205853300513311e-17,0,0.013698630136986299,1.5430806348152535,1
12PES0143X,16.86733,-99.90278,539,4.7311956299573974e-4,137,4.7311956299616627e-4,4.7311956299573974e-4,0.02004413938838594,6.766036198054762,4
12PES0152E,16.8638,-99.88537,539,1.4247732273267973e-4,0,1.4247732273288497e-4,1.4247732273267973e-4,0.010260639308422751,1.7133229306137587,1
12DES0208L,16.83071,-99.81975,539,2.898426012208065e-5,136,2.8984260122150313e-5,2.898426012208065e-5,0.013922703951505931,2.477036885253671,2
12EST0001L,16.94095,-99.81146,539,2.7282250741797574e-6,0,2.728225074187767e-6,2.7282250741797574e-6,0.008824777936426874,1.5907286263564606,1
12DST0280N,16.92427,-99.81286,539,0.0013514042384709618,576,0.0013514042384744625,0.0013514042384709618,0.012177539300098517,5.98404509924055,4
12PES0160N,16.86208,-99.91284,539,6.531358992608521e-4,0,6.531358992628843e-4,6.531358992608521e-4,0.012340980744105282,3.3103126663811597,2
12PES0050H,16.86227,-99.91137,539,7.444075970319541e-5,0,7.444075970337734e-5,7.444075970319541e-5,0.008743789122043367,1.7516171295789131,1
12DST0212Q,16.84489,-99.84112,539,1.2395615146562167e-4,0,1.2395615146583184e-4,1.2395615146562167e-4,0.005608038717648677,1.7155833244673908,1
12DES0227Z,16.91839,-99.83014,539,1.7189426400845352e-4,0,1.7189426400857167e-4,1.7189426400845352e-4,0.011298034350549942,2.9490892045490402,2
12DES0146P,16.84159,-99.63964,539,2.5250899494249582e-5,0,2.5250899494362028e-5,2.5250899494249582e-5,0.004658516119250549,1.7801386057637438,1
12DST0211R,16.87632,-99.85697,539,0.0016248655735733714,42,0.0016248655735754123,0.0016248655735733714,0.011568549919160809,3.784243962090512,2
12DST0113Q,16.82946,-99.77508,539,6.640137153996692e-4,0,6.640137154017916e-4,6.640137153996692e-4,0.003776770787547824,2.1985721756408436,1
12DST0123X,16.87921,-99.82662,539,7.770574290521408e-4,0,7.770574290541897e-4,7.770574290521408e-4,0.006105028251412069,4.36485862869371,2
12PES0036O,16.86361,-99.88145,539,4.587674997083302e-4,0,4.58767499708933e-4,4.587674997083302e-4,0.003706274480693803,2.834143165139102,1
12PES0137M,16.86488,-99.89758,539,0.012331893396632864,0,0.012331893396670662,0.012331893396632864,0.010978467277902654,2.5429881235019085,1
12PES0183Y,16.88245,-99.84024,539,2.56200209562377e-4,0,2.5620020956269635e-4,2.56200209562377e-4,0.012751488733861057,2.5120335719589417,2
12EES0006O,16.88705,-99.85755,539,0.0016778731430861012,5,0.001677873143088438,0.0016778731430861012,0.013781995251994012,2.754182750447869,2
12PES0010G,16.86282,-99.90567,539,4.2409783544038144e-4,4,4.240978354410252e-4,4.2409783544038144e-4,0.008105954089878544,8.078759972416732,3
12PES0182Z,16.86374,-99.87482,539,4.752162499807435e-4,69,4.752162499814313e-4,4.752162499807435e-4,0.016597342172760356,6.103352351394049,3
12DST0118L,16.98567,-100.12702,539,0.007147924814698326,0,0.007147924814721204,0.007147924814698326,0.00535025005926701,1.7019447487595203,1
12DST0155P,17.03911,-100.06193,539,0.007147924814698326,0,0.007147924814721205,0.007147924814698326,0.0053502500592670105,1.7019447487595203,1
12DST0153R,16.88301,-99.84909,539,1.011852313671823e-4,0,1.0118523136724854e-4,1.011852313671823e-4,0.0036739319068407675,2.0516936975036177,1
12DST0235A,16.89464,-99.84361,539,0.001085378232614912,92,0.0010853782326144174,0.001085378232614912,0.01993439259084794,4.055867602596413,3
12DST0245H,16.88037,-99.83473,539,3.541483097851974e-4,0,3.5414830978522e-4,3.541483097851974e-4,0.00772177537257283,2.051693697503617,1
12PES0164J,16.8012,-99.80023,539,0.9619089073332953,0,0.9619089073363691,0.9619089073332953,0.015367804865386312,1.598070519060795,1
12DST0258L,16.82554,-99.83197,539,6.852289866696642e-4,0,6.852289866711553e-4,6.852289866696642e-4,0.009950034667577965,1.7124473566471639,1
12PES0179L,16.85316,-99.91076,539,2.0402994480556998e-4,0,2.0402994480563897e-4,2.0402994480556998e-4,0.012829395192398342,1.6769938074943527,1
12PES0173R,16.79948,-99.80099,539,0.1537328653445878,0,0.15373286534458802,0.1537328653445878,0.010847169161098392,1.8656358125416284,1
12PES0011F,16.83646,-99.89885,539,2.354910333695786e-4,0,2.3549103337008263e-4,2.354910333695786e-4,0.007706122503804346,2.0424386165004704,1
12PES0109Q,16.87637,-99.89963,539,1.6723276282765875e-4,0,1.6723276282804548e-4,1.6723276282765875e-4,0.006068056421701039,2.04243861650047,1
12PST0002Q,16.85442,-99.90801,539,1.1655616803140085e-4,0,1.1655616803168647e-4,1.1655616803140085e-4,0.004851916451654646,2.0424386165004695,1
12PES0161M,16.86461,-99.86769,539,0,0,5.28416271165147e-17,0,0.013698630136986299,1.543080634815254,1
12PES0151F,16.86412,-99.88241,539,5.2011191072010245e-5,0,5.201119107216796e-5,5.2011191072010245e-5,0.005346345840528776,1.7603923176421565,1
