name,lat,lon,grupo,authority,betweenness,eigen,hub,pagerank,subgraph,degree
31DES0001I,20.9905,-89.60891,3,1.9667778552795796e-16,2525.75,7.197071176361704e-17,1.9667778552795796e-16,0.006693927688417293,120504.46458942464,21
31DES0004F,20.96997,-89.65723,3,1.5734222842236637e-16,1388,2.6424450966160364e-17,1.5734222842236637e-16,0.009922787803828053,230021.66690142849,25
31DES0006D,21.2885,-89.63187,3,1.4750833914596848e-17,1,0,1.4750833914596848e-17,0.004996924551151645,28.460602108200163,4
31DES0009A,20.96658,-89.59586,3,0,2711,0,0,0.008568057121792538,221059.52203005942,22
31DES0010Q,20.93458,-89.61595,3,1.1800667131677478e-16,1456,2.028659812335011e-17,1.1800667131677478e-16,0.0082410418169587309,319464.5616749229,26
31DES0013N,20.94686,-89.65476,3,7.867111421118319e-17,2065,3.57884485148201e-18,7.867111421118319e-17,0.008861401864954937,218233.35933876503,24
31DES0015L,21.00445,-89.59673,3,-0,1265,0,-0,0.006555100437024049,89264.87315051233,17
31DES2001W,20.97844,-89.63854,3,1.1800667131677478e-16,522,3.3967139775125934e-17,1.1800667131677478e-16,0.005425116312068444,70295.69691299913,15
31DES2012B,21.01296,-89.86751,3,0,309,0,0,0.006141683689216344,6.328759961083956,4
31DES2013A,20.95178,-89.68955,3,1.9667778552795796e-17,37,8.130672438261906e-18,1.9667778552795796e-17,0.0047294787821453976,69017.41672232731,11
31DES2015Z,20.91086,-89.64329,3,0,0,0,0,0.006002270391553712,35582.295800957014,8
31DES2016Y,20.87789,-89.75543,3,0,0,0,0,0.008024502149369481,3.3085325844543276,2
31DSN0004N,20.88037,-89.74867,3,0,0,0,0,0.007040323355313552,3.3085325844543303,2
31DSN0019P,20.96997,-89.65723,3,9.833889276397898e-18,0,0,9.833889276397898e-18,0.0038559389592285544,26566.889588591148,7
31DSN0025Z,21.10301,-89.28564,3,0.17070921462573985,0,0.17070921462573574,0.17070921462573985,0.0026299864751156243,3.193583971038104,2
31DSN0027Y,20.96837,-89.59627,3,-0,0,0,-0,0.0016623174498106384,7864.261817898479,3
31DST0001A,20.97764,-89.60234,3,0,609,0,0,0.010161886867144223,280451.3478829368,23
31DST0002Z,21.02349,-89.62632,3,1.1800667131677478e-16,1496,3.519768890054431e-17,1.1800667131677478e-16,0.010809120298825086,77103.56164571347,21
31DST0008U,21.27656,-89.70981,3,1.9667778552795796e-17,214,0,1.9667778552795796e-17,0.0052727484734869465,650.7673050607192,5
31DST0013F,20.81098,-89.44377,3,6.146180797748686e-18,0,0,6.146180797748686e-18,0.005555555555562227,1.5430806348152417,1
31DST0017B,20.81558,-89.24044,3,1.352159775504711e-17,0,4.8187785534905655e-18,1.352159775504711e-17,0.005555555555562227,1.543080634815241,1
31DST0018A,20.91124,-89.96437,3,0,912,0,0,0.005275933425278038,8.281324994266285,3
31DST0019Z,20.99314,-89.37587,3,4.4252501743790544e-17,620,4.85837698212903e-18,4.4252501743790544e-17,0.005871503926483394,5.357711544153152,4
31DST0020P,20.96821,-89.57626,3,0,293,0,0,0.007538055382279648,165148.58920528236,18
31DST0021O,21.0989,-89.30043,3,0.15697072171068283,4,0.15697072171067955,0.15697072171068283,0.0025949473064439815,4.478748892519113,3
31DST0027I,20.93804,-89.60269,3,-0,928.5,0,-0,0.01180632215350817,330437.89941820264,28
31DST0029G,20.91675,-89.62493,3,9.833889276397898e-17,227,0,9.833889276397898e-17,0.006938036422856667,90531.84328971642,14
31DST0032U,20.98864,-89.21818,3,0,0,0,0,0.0024669197993468592,1031.800005952907,1
31DST0034S,20.84759,-89.37532,3,1.2292361595497372e-17,0,4.545590998903763e-18,1.2292361595497372e-17,0.0011210314222101384,2472.6445050308944,2
31DST0040C,20.81644,-89.63372,3,0,157,0,0,0.007257497680165748,250.08615259547847,2
31DST0044Z,20.96321,-89.66743,3,0,0,0,0,0.006085716859904436,35340.122697080355,8
31DST0054F,20.95453,-89.58608,3,3.933555710559159e-17,604.75,0,3.933555710559159e-17,0.009619100516265439,271026.07533611084,24
31DST0055E,21.01085,-89.65988,3,0,0,0,0,0.005229134984313912,6497.672039663996,5
31DST0056D,20.99141,-89.57507,3,0,237,0,0,0.007244013377610995,89306.36611003519,16
31DST0057C,20.91936,-89.68261,3,-0,157,0,-0,0.006322300577846238,11952.482647994611,6
31DST2002N,20.92671,-89.59604,3,0,38,0,0,0.0023275620019246285,8442.151963167638,4
31DST2003M,20.92225,-89.65055,3,0,157,0,0,0.007971217171922248,34603.16307506714,8
31DST2011V,20.94161,-89.61356,3,3.933555710559159e-17,265,0,3.933555710559159e-17,0.006383148774089722,88082.67880898165,14
31DST2016Q,20.94102,-89.55536,3,0,16,0,0,0.007090948672911237,120990.72503246846,14
31DST2017P,20.98901,-89.67426,3,1.5734222842236637e-16,1056,4.643937769462952e-17,1.5734222842236637e-16,0.006525773882828263,163765.1673277708,22
31DST2018O,20.91713,-89.69456,3,-0,35,0,-0,0.0032560658120371613,6764.132928414261,5
31DST2023Z,20.96811,-89.68561,3,3.933555710559159e-17,342,0,3.933555710559159e-17,0.008613752298365552,58576.421584168405,12
31DST2024Z,20.99402,-89.69401,3,1.9667778552795796e-17,0,9.893066523763788e-18,1.9667778552795796e-17,0.002796218797007673,6147.462529442504,5
31EES0005D,20.95684,-89.64058,3,3.933555710559159e-17,276,0,3.933555710559159e-17,0.010601791824639804,148168.54005102644,22
31EES0008A,20.96521,-89.58897,3,0,558,0,0,0.009891362414423989,243038.1466395213,20
31EES0010P,21.00473,-89.65245,3,9.833889276397898e-17,466,2.0946007095901534e-17,9.833889276397898e-17,0.005513168696807987,35684.06129491409,12
31EES0011O,21.05568,-89.42033,3,0,912,0,0,0.005818926090268204,3.064812990900955,2
31EES0012N,21.03974,-89.55578,3,0,240,0,0,0.004613341139819872,6149.597712713003,4
31EES0020W,21.07652,-89.52067,3,0,314,0,0,0.010179624544075455,28.738057411175642,4
31EES0021V,20.97805,-89.60533,3,3.933555710559159e-17,240,0,3.933555710559159e-17,0.006535919483252572,89614.54322041335,15
31EES0022U,20.99248,-89.59203,3,0,764.5,0,0,0.013806740799019444,118045.01148858677,22
31EES0023T,20.95308,-89.59834,3,0,281,0,0,0.008069577617687309,173644.61865428265,20
31EES0024S,21.28673,-89.66026,3,0,558,0,0,0.011860187676289208,1024.980381798161,8
31EES0026Q,21.10802,-89.28203,3,1,7,1,1,0.014716161808596896,6.295586991633324,5
31EES0035Y,21.02647,-89.85455,3,0,312,0,0,0.006524970893219769,5.81338946818644,4
31EES0037W,21.0025,-89.39576,3,3.441861246739264e-17,0,2.6809825205267244e-19,3.441861246739264e-17,0.0057715231913175085,4.451544651851655,3
31EES0038V,20.97753,-89.61383,3,3.933555710559159e-17,301,0,3.933555710559159e-17,0.011207846533380963,247269.57564685593,23
31EES0040J,21.00021,-89.62737,3,1.1800667131677478e-16,942,0,1.1800667131677478e-16,0.009094433451438306,128221.63782737996,22
31EES0041I,20.98184,-89.67809,3,1.1800667131677478e-16,354,2.408343282234016e-17,1.1800667131677478e-16,0.005254467739875979,70767.48312475515,13
31EES0052O,20.92953,-89.56672,3,0,154,0,0,0.007264884896297001,120268.62957774097,14
31EES0053N,20.73014,-89.47499,3,6.146180797748686e-18,0,0,6.146180797748686e-18,0.005555555555562227,1.5430806348152444,1
31EES0059H,21.03827,-89.62229,3,0,0,0,0,0.003328345880396243,5267.6278774422835,4
31EES0060X,20.95754,-89.62791,3,0,306,0,0,0.009464192579565926,179351.161885918,22
31EES0065S,21.04387,-89.32244,3,0,0,0,0,0.00498332484968117,1.5949586363426687,1
31EES0073A,20.81242,-89.52317,3,0,1,0,0,0.008108108108115892,2.1781835566085697,2
31EES0082I,20.96951,-89.93067,3,0,157,0,0,0.006229469639899894,2.4033764112168283,2
31EES0083H,20.88372,-89.88213,3,9.833889276397898e-18,1356,0,9.833889276397898e-18,0.008254357079953561,949.2028314274165,4
31EES0109Z,21.1672,-89.35443,3,6.146180797748686e-18,0,0,6.146180797748686e-18,0.005555555555562227,1.5430806348152446,1
31EES0117H,20.96698,-89.67341,3,1.5734222842236637e-16,504,2.992159182730121e-17,1.5734222842236637e-16,0.006682826747676225,112973.32548185006,17
31EES0118G,21.04176,-89.64887,3,3.933555710559159e-17,307,0,3.933555710559159e-17,0.006372610718694,23259.04067806359,11
31EES0121U,20.96906,-89.64109,3,2.4584723190994745e-17,725,8.234588997602502e-18,2.4584723190994745e-17,0.00125258526294952,953.0770918957691,2
31ESN0012V,20.93471,-89.55819,3,0,0,0,0,0.0051209155040246816,3063.4150048664724,3
31ESN0018P,20.95307,-89.59834,3,0,2,0,0,0.0058875672011625,26233.919250386665,7
31EST0012F,20.88949,-89.73803,3,2.9501667829193696e-17,622,1.1076930334223685e-18,2.9501667829193696e-17,0.010929412710852853,61.93726571395912,6
31ETV0036C,20.51806,-89.53963,3,0,0,0,0,0.005555555555562227,1.5430806348152426,1
31ETV0066X,20.62879,-89.60316,3,0,0,0,0,0.005555555555562227,1.5430806348152424,1
31PES0003L,20.95947,-89.63313,3,0,0,0,0,0.005974128075437838,9115.718149782684,8
31PES0005J,20.98729,-89.58691,3,0,168,0,0,0.009857089314824149,13348.857928478848,13
31PES0006I,20.99453,-89.62959,3,0,0,0,0,0.00184190774145988,1390.2867638893438,2
31PES0009F,20.96976,-89.62543,3,0,40.5,0,0,0.005853510022858293,12852.25953713969,10
31PES0010V,21.00349,-89.61711,3,-0,163,0,-0,0.009061718974908097,1974.8750514211592,13
31PES0011U,21.00938,-89.62358,3,0,0,0,0,0.004641232708617886,55.74446809140874,3
31PES0012T,20.98704,-89.61724,3,1.1800667131677478e-16,1321.25,0,1.1800667131677478e-16,0.012781349005282472,28108.864835318353,24
31PES0013S,20.97969,-89.62084,3,0,0,0,0,0.005027034510571004,1414.3281514707958,6
31PES0015Q,20.96968,-89.63057,3,9.833889276397898e-18,158,0,9.833889276397898e-18,0.003934821537568061,1921.767389703841,7
31PES0016P,20.95856,-89.62475,3,0,0,0,0,0.00402642746596768,28539.60104668097,7
31PES0017O,20.99418,-89.61177,3,0,17,0,0,0.009763021441704692,1572.8660820887187,12
31PES0018N,20.98637,-89.63294,3,9.833889276397898e-18,38,0,9.833889276397898e-18,0.00406467389430732,4116.505088095952,7
31PES0042N,20.98923,-89.61745,3,0,0,0,0,0.004095715146424648,410.2464853400515,4
31PES0043M,20.97362,-89.61479,3,0,0,0,0,0.002748909341217436,1255.9024582669558,2
31PES0050W,20.98249,-89.62301,3,-0,21.25,0,-0,0.006692817671439623,9453.472311117921,10
31PES0058O,20.99359,-89.60663,3,0,0,0,0,0.005201589369313366,2128.856714106836,6
31PES0059N,20.94689,-89.62765,3,0,0,0,0,0.005850216127514405,11360.411545733634,5
31PES0061B,21.01793,-89.59168,3,0,0,0,0,0.004095963878630857,139.64256246047904,4
31PES0065Y,20.98775,-89.63834,3,0,0,0,0,0.003375754589866691,1142.332425432331,4
31PES0067W,21.04113,-89.60793,3,0,171,0,0,0.005909895939119306,4199.538665570941,10
31PES0068V,20.9685,-89.61397,3,0,0,0,0,0.0034984382973830288,7972.718076184526,5
31PES0071I,21.27852,-89.65385,3,0,69,0,0,0.00538747985743204,26.73368359162502,4
31PES0072H,21.03136,-89.60393,3,0,168.5,0,0,0.004961939117940312,2773.0465084621924,7
31PES0073G,20.99664,-89.65117,3,9.833889276397898e-18,0,9.385830295390023e-18,9.833889276397898e-18,0.004093379168706798,1488.3156697187546,7
31PES0074F,21.00292,-89.57123,3,0,0,0,0,0.0024764988623807954,803.4918584288812,2
31PES0076D,21.03809,-89.61918,3,0,620,0,0,0.014614709823725,1535.4836669693157,13
31PES0079A,21.0208,-89.87711,3,0,0,0,0,0.006475082049780117,4.76602237630322,3
31PES0083N,21.01189,-89.66411,3,7.867111421118319e-17,56,5.276997392695901e-18,7.867111421118319e-17,0.0059767344588910155,6278.752543278083,10
31PES0085L,21.04978,-89.62252,3,5.900333565838739e-17,260,0,5.900333565838739e-17,0.0049542547450536325,1145.6524296409439,7
31PES0086K,21.00715,-89.57379,3,0,0,0,0,0.004145229064053415,224.0620877297109,5
31PES0087J,20.99544,-89.64757,3,0,0,0,0,0.0045024707396884266,334.3784159403902,3
31PES0089H,20.99088,-89.64719,3,1.5734222842236637e-16,370,0,1.5734222842236637e-16,0.012364005006781219,9814.184346863682,18
31PES0093U,21.00232,-89.64766,3,3.933555710559159e-17,6,0,3.933555710559159e-17,0.009296757648200706,9101.262818603633,13
31PES0094T,20.97485,-89.62875,3,3.933555710559159e-17,36,0,3.933555710559159e-17,0.006956478311835054,8691.092548814222,9
31PES0097Q,20.95993,-89.62876,3,0,0,0,0,0.004316534887964898,93.62154503144843,2
31PES0099O,21.02498,-89.59556,3,0,0,0,0,0.00510927127582731,137.9736011903041,3
31PES0101M,21.01659,-89.57011,3,0,15.5,0,0,0.009137365724471632,8503.306201249805,13
31PES0102L,21.05123,-89.67359,3,0,1,0,0,0.008903061488881625,1313.9773643324945,7
31PES0112S,21.0256,-89.64023,3,0,0,0,0,0.0034953358883150548,112.81101365683989,2
31PES0114Q,21.02014,-89.56069,3,7.867111421118319e-17,201,2.5618590029287588e-18,7.867111421118319e-17,0.004432663553574655,7217.429263586117,9
31PES0119L,21.07785,-89.52948,3,0,462,0,0,0.00551617291960225,3235.77453810656,6
31PES0120A,21.06194,-89.42042,3,0,1057,0,0,0.0060106219037095185,155.50198875308593,3
31PES0124X,20.96019,-89.61078,3,0,0,0,0,0.004615478811591886,18089.973223436264,6
31PES0129S,21.0348,-89.64307,3,4.916944638198949e-17,3,4.576586371731764e-18,4.916944638198949e-17,0.004136197236558857,1614.4970664328694,6
31EES0077X,21.10255,-89.45932,3,1.720930623369632e-17,0,5.1797429628477984e-18,1.720930623369632e-17,9.871127532068077e-4,504.66003668518454,1
31ETV0157O,21.04067,-89.60043,3,1.2292361595497372e-17,0,3.361659195568525e-18,1.2292361595497372e-17,0.0010640024631412407,504.66003668518454,1
31PES0049G,20.96115,-89.61839,3,3.441861246739264e-17,0,1.0495328656881798e-17,3.441861246739264e-17,0.0012429646780979557,9196.841020994849,3
31PES0075E,20.97583,-89.65322,3,3.687708478649212e-18,0,9.230126610858435e-19,3.687708478649212e-18,0.0010937047103567604,961.3996293491937,1
31PES0106H,20.96152,-89.62544,3,9.833889276397898e-18,0,0,9.833889276397898e-18,0.004456997496342254,32757.926869474166,8
31PST0005B,20.96678,-89.62191,3,9.833889276397898e-18,182,0,9.833889276397898e-18,0.006166396508043692,10728.838913145095,6
31ETV0012T,21.20728,-89.66352,3,2.4584723190994745e-17,87,3.580532950456001e-18,2.4584723190994745e-17,0.002588835873949149,23.266555089545605,3
31PES0088I,20.95795,-89.59828,3,0,0,0,0,0.0060477702467213856,61807.45262229562,10
31PES0123Y,20.99078,-89.58042,3,0,89,0,0,0.006305039656676983,7937.531283883631,6
31PES0126V,20.96467,-89.60608,3,0,0,0,0,0.002988301675170844,7282.236565833111,4
31ESN0005L,20.94342,-89.62341,3,1.9667778552795796e-17,0,0,1.9667778552795796e-17,0.0024873398939491195,10498.914215120449,4
31ESN0017Q,20.95913,-89.63288,3,0,0,0,0,0.0030186873994027877,6803.7203087375665,3
31PST0012L,20.96109,-89.63387,3,0,952,0,0,0.0049566168578750285,12639.38350855448,6
31PES0077C,20.9737,-89.59891,3,0,0,0,0,0.005592010351628757,27511.1054834654,9
31PST0006A,20.9937,-89.59503,3,0,138,0,0,0.005023217791780593,9049.22300954832,9
31PES0100N,21.01309,-89.87343,3,0,0,0,0,0.004239094895502117,3.1909169540455937,2
31EES0067Q,21.10238,-89.65141,3,4.916944638198949e-18,0,2.2709620363995742e-20,4.916944638198949e-18,0.001288021655398456,324.19751276975387,1
31EES0100H,21.09999,-89.57523,3,0,0,0,0,0.0038890497332981803,336.4512843734442,2
31ETV0055R,20.87619,-89.49794,3,6.146180797748686e-18,0,0,6.146180797748686e-18,0.005555555555557983,1.543080634815242,1
31EES0085F,20.86433,-89.25547,3,1.352159775504711e-17,0,3.766803931023448e-18,1.352159775504711e-17,0.005555555555557983,1.5430806348152415,1
31ETV0009F,20.96263,-89.34098,3,2.704319551009422e-17,0,5.1088768023778465e-18,2.704319551009422e-17,0.0033659042538092348,3.115101166781038,2
31ETV0092V,20.99988,-89.34055,3,9.833889276397898e-18,157,0,9.833889276397898e-18,0.0067655323880156945,2.3924405384613063,2
31ETV0125W,21.00891,-89.42136,3,-0,765,0,-0,0.007044754790580475,3.9723021597892165,3
31ETV0088I,21.11026,-89.24628,3,0.5663885889229832,0,0.5663885889229687,0.5663885889229832,0.0045977583513946004,3.1935839710381075,2
31ETV0104J,20.8678,-89.65493,3,0,0,0,0,0.0036700624460233515,3177.5495807663883,2
31ETV0063Z,20.751830000000002,-89.65316,3,8.60465311684816e-18,0,2.7534347906576552e-18,8.60465311684816e-18,0.0011431170389371364,379.96097154232575,1
31DST2006J,20.83675,-89.97394,3,0,0,0,0,0.0034036970950577523,2.6482305265153396,1
31SES0001K,20.95049,-89.58019,3,0,0,0,0,0.003906908021654223,12693.999210908309,5
31EES0080K,21.03331,-89.75224,3,0,0,0,0,0.003114932216761852,51.70174983161472,1
31DST2005K,20.82144,-89.65762,3,0,0,0,0,0.0025330673229927827,146.0798866690115,1
31ESN0001P,20.96698,-89.67341,3,1.9667778552795796e-17,0,0,1.9667778552795796e-17,0.002024158151091535,4037.566529686062,3
31PES0095S,21.00333,-89.63494,3,0,0,0,0,0.002068897299492907,541.1837915803063,2
31PST0011M,20.97685,-89.62277,3,9.833889276397898e-18,0,5.377017256904869e-18,9.833889276397898e-18,0.0013600929853315054,1253.5213085694754,2
31EES0075Z,21.14661,-89.48185,3,7.375416957298424e-18,0,0,7.375416957298424e-18,0.0019370148404082666,1.8108641508702046,1
31ETV0074F,21.04978,-89.49388,3,0,0,0,0,0.006351740868689565,1.8108641508702048,1
31PES0070J,20.99989,-89.58948,3,0,0,0,0,0.0033948393603054367,1083.5725669681628,3
31PES0096R,21.01493,-89.66703,3,0,0,0,0,0.0019631501502006456,1104.2232749775403,2
31PES0108F,20.98302,-89.58381,3,3.687708478649212e-18,0,0,3.687708478649212e-18,0.0010524958482296372,497.7285134586779,1
31PES0134D,21.00537,-89.58077,3,0,0,0,0,0.0017440374378746288,893.2034603659527,2
31PES0008G,21.2849,-89.66009,3,0,0,0,0,0.0031084978486170846,6.408049126256652,1
31PST0009Y,21.2856,-89.65951,3,0,0,0,0,0.006783406349207057,9.6090267133042655,2
31EES0098J,21.12599,-89.26189,3,0.5629896316615391,0,0.5629896316615248,0.5629896316615391,0.004397239695896908,1.8013072760182434,1
31ETV0148G,21.0523,-89.23025,3,0.5629896316615391,0,0.5629896316615248,0.5629896316615391,0.004397239695896908,1.8013072760182443,1
31ETV0149F,20.71118,-89.49408,3,6.146180797748686e-18,0,0,6.146180797748686e-18,0.005555555555557983,1.5430806348152435,1
31ETV0056Q,20.86915,-89.58228,3,0,0,0,0,0.002556306306309545,1.589091778304285,1
31ETV0062A,20.86414,-89.53278,3,0,0,0,0,0.00600225225225275,1.5890917783042848,1
31ETV0110U,20.97613,-89.97059,3,0,0,0,0,0.0056470144187012366,1.5951207346928065,1
31ETV0106H,20.85272,-89.89728,3,0,0,0,0,0.004751712433376972,5.651914516048443,1
31ETV0120A,20.87677,-89.86331,3,7.375416957298424e-18,0,0,7.375416957298424e-18,0.0020872146453504315,5.6519145160484445,1
31ETV0175D,21.19532,-89.38509,3,6.146180797748686e-18,0,0,6.146180797748686e-18,0.005555555555557983,1.5430806348152435,1
31ETV0121Z,20.84398,-89.711429999999993,3,1.5980070074146586e-17,0,5.507925815465009e-18,1.5980070074146586e-17,0.0011394973370809707,2.070508468445746,1
31ETV0171H,20.88036,-89.68357,3,0,0,0,0,0.003818432369832473,2.070508468445746,1
31ETV0075E,20.62444,-89.49867,3,0,0,0,0,0.005555555555557983,1.5430806348152444,1
31ETV0105I,20.54004,-89.60446,3,0,0,0,0,0.005555555555557983,1.5430806348152424,1
31PES0098P,21.01793,-89.59168,3,0,0,0,0,0.00505800887111403,73.61605117606663,4
31PES0111T,21.04001,-89.62234,3,0,0,0,0,0.002925620129125357,93.51597355111232,3
31PES0132F,21.00664,-89.64669,3,0,0,0,0,0.005617909940775431,185.87367359991347,2
31PES0137A,21.02797,-89.60544,3,0,0,0,0,0.0055751341170879746,10.543744283046705,1
31PES0122Z,21.01321,-89.60717,3,1.1063125435947636e-17,0,2.4935472644479223e-18,1.1063125435947636e-17,0.0014406332986217746,7.29688019284665,1
31PES0136B,21.02844,-89.64471,3,1.9667778552795796e-17,4,3.028074426234543e-19,1.9667778552795796e-17,0.003707489700867416,104.95370362660555,3
