name,lat,lon,grupo,authority,betweenness,eigen,hub,pagerank,subgraph,degree
24DES0018Z,22.16777,-100.99052,651,0.5312191977361762,937.25,0.5312191977361751,0.5312191977361762,0.019135223027554864,2608035.333166391,32
24DES0020N,22.18381,-100.95083,651,0.20655187498591362,587,0.20655187498591318,0.20655187498591362,0.010595514385589507,936097.0081552691,19
24DES0022L,22.09547,-100.87993,651,0.17149590007035284,5,0.17149590007035267,0.17149590007035284,0.009919602231224374,714347.2887663007,13
24DES0025I,22.15182,-101.02541,651,0.5262395283690184,418,0.5262395283690177,0.5262395283690184,0.01728045163621097,1302781.467139435,25
24DES0026H,22.18017,-101.00938,651,0.3201713527570157,0,0.3201713527570148,0.3201713527570157,0.009126068640819643,538451.1264712049,13
24DES0027G,22.12192,-100.94591,651,0.6268619092214187,153,0.6268619092214175,0.6268619092214187,0.016225076488027092,3944616.206149389,29
24DES0033R,22.15992,-100.96018,651,0.1925138743541399,25,0.19251387435413958,0.1925138743541399,0.00778478599779778,942743.2799323901,15
24DES0036O,22.1418,-100.93784,651,0.28926991598535506,774,0.28926991598535456,0.28926991598535506,0.008980939367291314,3652085.6567918085,28
24DES0040A,22.16656,-100.82616,651,0.21303748119575702,0,0.21303748119575688,0.21303748119575702,0.006196595640019477,49189.60444919911,3
24DES0056B,22.18326,-100.97477,651,0.15202934938836632,0,0.15202934938836601,0.15202934938836632,0.008333285465969502,190557.07392826714,8
24DES0057A,22.14974,-100.92987,651,0.17992165982659206,0,0.17992165982659186,0.17992165982659206,0.006685483931122803,897665.3649442601,13
24DES0069F,22.16525,-100.95381,651,0.3189049135451808,141.25,0.31890491354518075,0.3189049135451808,0.012794191814295619,1959905.5649870862,23
24DES0072T,22.16373,-101.00353,651,0.46319188815571427,2,0.4631918881557131,0.46319188815571427,0.010694234367910786,913745.026822178,15
24DES0074R,22.12702,-100.99085,651,1,524,1,1,0.01965404287908929,4048262.972506806,33
24DES0099Z,22.11807,-100.96479,651,0.48111694712578146,0,0.4811169471257806,0.48111694712578146,0.01025220038982821,1449765.514543204,16
24DES0107S,22.14666,-100.89805,651,0.3600549755419296,208.5,0.3600549755419289,0.3600549755419296,0.011007723632432654,2961996.8530934616,23
24DES0108R,22.16173,-100.93678,651,0.16032104746122308,9,0.16032104746122303,0.16032104746122308,0.007495204952056361,213517.1603479688,8
24DES0109Q,22.18353,-100.96107,651,0.16208190189829003,23.75,0.16208190189828964,0.16208190189829003,0.007955316829366328,574595.0532315121,14
24DES0111E,22.14247,-100.90939,651,0.2613997237020835,9,0.26139972370208336,0.2613997237020835,0.00894419766253678,1524238.8905779072,16
24DES0112D,22.11038,-100.95234,651,0.29734926351084473,0,0.2973492635108442,0.29734926351084473,0.006586859000032799,432252.15017166204,9
24DES0113C,22.10805,-100.92923,651,0.22724103857599637,3,0.22724103857599592,0.22724103857599637,0.006205532543425803,412452.3373028578,8
24DES0114B,22.10994,-100.79784,651,0.18196864873099194,152,0.18196864873099183,0.18196864873099194,0.006809541728297726,845798.2444765477,14
24DST0001R,22.1407,-100.98677,651,0.31428759300310083,1156,0.31428759300310055,0.31428759300310083,0.007975399450933743,2330643.7701313295,23
24DST0014V,22.11625,-100.95995,651,0.3372692707007959,1,0.3372692707007954,0.3372692707007959,0.007087933661424632,1168916.8866786787,14
24DST0022D,22.24089,-101.00675,651,0.12189881878072589,0,0.12189881878072555,0.12189881878072589,0.004293296089840729,42699.88057046814,4
24DST0025A,22.18031,-100.94647,651,0.20797515270355918,12,0.20797515270355893,0.20797515270355918,0.013424169839688015,595495.1047358589,15
24DST0032K,22.15512,-100.94134,651,0.39604073841992316,201,0.3960407384199226,0.39604073841992316,0.014558253673757205,2040756.4880447008,22
24DST0040T,22.19199,-101.00616,651,0.23153130899703023,11,0.23153130899702984,0.23153130899703023,0.009819586189125974,396576.0894681248,13
24DST0044P,22.14407,-100.96483,651,0.3787174395512633,5.5,0.37871743955126297,0.3787174395512633,0.008586996976282766,1823942.633307263,16
24DST0049K,22.13287,-100.91415,651,0.26441193915572714,372,0.26441193915572686,0.26441193915572714,0.009715224462296114,2521339.476906624,23
24DST0050Z,22.04004,-100.86276,651,0.03876076357629053,0,0.03876076357629047,0.03876076357629053,0.0030579623952395247,30476.05476070175,3
24DST0051Z,22.10446,-101.07643,651,0.17130383837927474,0,0.17130383837927451,0.17130383837927474,0.0036133337497830514,25295.88183475732,2
24DST0067Z,22.24735,-100.88289,651,0.024748011812497986,0,0.024748011812497944,0.024748011812497986,0.002964031565361813,19685.65968666643,3
24DST0072L,22.17249,-101.01319,651,0.3584066610388438,114,0.3584066610388428,0.3584066610388438,0.008950410018886211,401148.7010079348,12
24DST0073K,22.12228,-100.95636,651,0.4390894562829511,4,0.4390894562829509,0.4390894562829511,0.010795296097417221,1142858.54084761,16
24DST0074J,22.13382,-100.94139,651,0.4148998805395964,661.75,0.4148998805395949,0.4148998805395964,0.01278149630536544,3970058.908178021,30
24DST0075I,22.18494,-100.99667,651,0.2537750008985923,593,0.2537750008985917,0.2537750008985923,0.008566316018273078,1457048.9519701456,20
24DST0076H,22.13966,-100.93063,651,0.29519471882060505,251,0.2951947188206047,0.29519471882060505,0.009902212787934978,2823587.742364084,23
24DST0086O,22.14807,-100.91232,651,0.3171911037918136,37,0.3171911037918131,0.3171911037918136,0.010167269623711313,1975728.0984109815,18
24DST0090A,22.11943,-100.94104,651,0.4457010400476252,3,0.44570104004762384,0.4457010400476252,0.011174482536854366,1352787.1337618642,17
24DST0092Z,22.1214,-100.93179,651,0.2879594061091304,22,0.28795940610913007,0.2879594061091304,0.008276757471416075,1234746.886096483,16
24DST0093Y,22.12849,-100.91185,651,0.21233656067097784,195,0.21233656067097745,0.21233656067097784,0.00783576481154209,1553622.8970861898,17
24EES0002X,22.15602,-100.96306,651,0.15391258077237735,127,0.153912580772377,0.15391258077237735,0.005469536821385654,659317.9469659781,11
24EES0003W,22.14679,-100.9754,651,0.26881388353831376,276,0.26881388353831315,0.26881388353831376,0.008455780668049978,1374311.456219288,19
24EES0004V,22.16514,-100.97899,651,0.11114569403370315,0,0.11114569403370292,0.11114569403370315,0.004335354063074703,85398.10977881531,5
24EES0005U,22.13792,-100.98355,651,0.3867630108238007,107,0.3867630108238002,0.3867630108238007,0.010043768518234398,2579234.7744415184,23
24EES0006T,22.13522,-101.01078,651,0.38523185017986517,157,0.3852318501798648,0.38523185017986517,0.011765353709156096,870457.6119221498,17
24EES0059Y,22.15486,-100.95956,651,0.4241067989292405,924.5,0.4241067989292401,0.4241067989292405,0.015215729260155691,5135354.197549845,34
24EES0060N,22.13306,-100.98094,651,0.8024913966348041,4029,0.8024913966348033,0.8024913966348041,0.01998553843122547,5271837.794618457,42
24EES0062L,22.15535,-100.96726,651,0.12854698930745057,12,0.12854698930745048,0.12854698930745057,0.005003808113298049,657383.9135986184,11
24EES0065I,22.14119,-100.98323,651,0.39860996251622455,39.5,0.3986099625162247,0.39860996251622455,0.006551006241882522,634925.7316904087,10
24EES0069E,22.16483,-100.97463,651,0.32274870401418787,290.25,0.3227487040141875,0.32274870401418787,0.013095897872556177,2278676.2409343324,27
24EES0072S,22.1668,-101.00679,651,0.39444237445785385,0,0.39444237445785313,0.39444237445785385,0.008809993196670765,89253.15338322877,6
24PES0005Z,22.14733,-100.98729,651,0.1337551256371649,0,0.13375512563716493,0.1337551256371649,0.005930247047035954,63037.31083469475,8
24PES0006Z,22.14423,-101.00499,651,0.13861723614698968,198,0.1386172361469894,0.13861723614698968,0.004436537836541148,136069.65247927964,6
24PES0008X,22.14717,-100.99458,651,0.19592994879133613,159,0.19592994879133568,0.19592994879133613,0.014052913172729645,42380.06007703852,14
24PES0009W,22.14952,-100.99946,651,0.36454064982266127,93,0.36454064982266066,0.36454064982266127,0.01241452748961458,561849.338765135,18
24PES0010L,22.14743,-100.97234,651,0.052478464687338834,0,0.05247846468733876,0.052478464687338834,0.002755315853736781,25278.786015855607,2
24PES0011K,22.15085,-100.99785,651,0.15855113090388787,127,0.15855113090388767,0.15855113090388787,0.007657246378004934,143067.90218953617,9
24PES0024O,22.19691,-100.92948,651,0.19402934368565256,0,0.19402934368565242,0.19402934368565256,0.006673990926729579,505274.5027275587,10
24PES0025N,22.15891,-100.98542,651,0.2021002382025771,0,0.20210023820257672,0.2021002382025771,0.007543733322246751,178009.71310089625,8
24PES0026M,22.16263,-100.98097,651,0.15640756292891683,134,0.15640756292891653,0.15640756292891683,0.008530723073690762,319154.54381356295,10
24PES0033W,22.14405,-101.01222,651,0.44344533912458034,856.75,0.4434453391245796,0.44344533912458034,0.016666148599468897,1090218.6976204773,24
24PES0037S,22.15217,-100.98535,651,0.10817178095726651,381,0.10817178095726634,0.10817178095726651,0.015321424937956848,3136.7685498235787,8
24PES0044B,22.14846,-101.03128,651,0.019634256672229764,12,0.019634256672229723,0.019634256672229764,0.005412972295699238,6.246013157223407,2
24PES0057F,22.18733,-100.93543,651,0.07420289649864041,0,0.07420289649864029,0.07420289649864041,0.005614533826482419,92219.80866195701,6
24PES0078S,22.14192,-100.97276,651,0.08313401460878053,0,0.08313401460878042,0.08313401460878053,0.0045577265822261,55927.63107081388,4
24PES0093K,22.15182,-100.98134,651,0.07357767390386052,0,0.07357767390386045,0.07357767390386052,0.0047832997226528624,125477.43481410215,5
24PES0099E,22.14917,-100.97022,651,0.5054382398680095,220.5,0.505438239868009,0.5054382398680095,0.015079754926350055,4037211.010864181,28
24PES0127K,22.14171,-100.97319,651,0.1787591643354282,0,0.17875916433542804,0.1787591643354282,0.007076773324005745,285204.1772435436,8
24PES0128J,22.15104,-100.99249,651,0.21180855357229877,0,0.21180855357229839,0.21180855357229877,0.008505519748551722,14218.862346275251,5
24PES0130Y,22.1438,-101.03598,651,0.049232081150929974,7,0.04923208115092998,0.049232081150929974,0.005087263226998184,893.6530412027213,3
24PES0132W,22.14033,-100.92489,651,0.10342934507008193,0,0.10342934507008174,0.10342934507008193,0.00842993018418407,145403.86503913093,8
24PES0136S,22.13348,-100.97489,651,0.14985472512274897,0,0.14985472512274886,0.14985472512274897,0.006888196553776724,386074.5701076059,8
24PES0151K,22.13666,-100.91469,651,0.03783771177909939,0,0.037837711779099385,0.03783771177909939,0.003274128075577787,24198.1232991154,3
24PES0161R,22.16703,-101.00063,651,0.3230074680209101,43,0.3230074680209095,0.3230074680209101,0.010670061921283964,157928.080996381,11
24PES0162Q,22.14496,-100.94154,651,0.06586604341697797,0,0.0658660434169779,0.06586604341697797,0.005034111251794348,35983.96992006623,4
24PES0166M,22.13867,-101.03862,651,0.09226546137098306,2,0.0922654613709829,0.09226546137098306,0.009059835861245393,333.62487791203483,4
24PES0168K,22.12117,-101.01971,651,0.049824905324184925,117,0.049824905324184834,0.049824905324184925,0.0056487341660214786,2956.300961420736,4
24PES0171Y,22.15198,-100.98467,651,0.31534539232145953,509,0.31534539232145914,0.31534539232145953,0.01218411081315277,218237.17548552185,11
24PES0173W,22.14069,-100.93337,651,0.22046438006567162,73,0.22046438006567143,0.22046438006567162,0.008565401185005928,783826.1442491285,15
24PES0180F,22.12268,-100.98641,651,0.2826845433779146,243,0.28268454337791443,0.2826845433779146,0.010381661056427682,261561.84480874418,12
24PES0189X,22.1411,-100.94827,651,0.29818974439997814,0,0.29818974439997786,0.29818974439997814,0.008662467011536116,288230.96480320126,7
24PES0190M,22.16984,-101.00895,651,0.2398215588249576,0,0.23982155882495715,0.2398215588249576,0.0077335795816857,207957.14126394215,11
24PES0193J,22.13697,-101.03375,651,0.020533800101729727,0,0.020533800101729692,0.020533800101729727,0.002381594230914055,600.3875667885412,2
24PES0199D,22.17354,-100.99711,651,0.19662090887485495,127,0.19662090887485445,0.19662090887485495,0.008024474312380913,110145.90899971413,8
24PES0205Y,22.12197,-100.96553,651,0.29071459079954576,0,0.2907145907995452,0.29071459079954576,0.0054787489710358345,260571.72839234598,6
24PES0206X,22.16394,-101.00079,651,0.16555849403979087,0,0.16555849403979056,0.16555849403979087,0.005173650637473787,89222.88331383391,6
24PES0207W,22.14526,-101.02829,651,0.1154310817793851,0,0.11543108177938481,0.1154310817793851,0.006528626138572162,1489.371444730805,2
24PES0213G,22.15476,-101.00154,651,0.3127337681323516,438.25,0.31273376813235126,0.3127337681323516,0.012526179458453754,471916.3835613566,17
24PES0218B,22.15324,-100.89062,651,0.3881190269559628,171.25,0.38811902695596245,0.3881190269559628,0.013160629173172992,2428821.0251992256,25
24PES0226K,22.12737,-100.98032,651,0.060104495719892743,0,0.06010449571989267,0.060104495719892743,0.0038456569510050007,124.82463428190944,1
24PES0228I,22.12344,-101.02145,651,0.06621204371945047,138,0.06621204371945034,0.06621204371945047,0.007811520696789309,935.8050426556897,5
24PES0230X,22.15176,-100.99451,651,0.21088145481272222,127,0.2108814548127218,0.21088145481272222,0.012272223149128656,40615.44651212441,9
24EES0007S,22.1922,-101.02175,651,0.170331453650775,0,0.17033145365077476,0.170331453650775,0.0038576050373677695,7755.546752031774,1
24PES0223N,22.17458,-100.98929,651,0.0372290837092376,10,0.03722908370923754,0.0372290837092376,0.0023699924431744217,63875.92185448372,4
24SST0001T,22.20019,-100.99604,651,0.14776824486023873,0,0.14776824486023843,0.14776824486023873,0.0067777259751942084,114046.26794081987,7
24DST0083R,22.22035,-100.92615,651,0.07554563906882038,0,0.07554563906882023,0.07554563906882038,0.005927349052094971,31720.65061610259,5
24EES0061M,22.18506,-100.9468,651,0.11557406566770057,0,0.11557406566770038,0.11557406566770057,0.005866389651318127,45135.80572615462,4
24PES0186Z,22.18082,-100.95381,651,0.08449208184608807,0,0.08449208184608792,0.08449208184608807,0.00502191647611992,30961.852574090484,4
24PES0212H,22.18826,-100.94134,651,0.06953704292002423,0,0.06953704292002412,0.06953704292002423,0.005652805319848482,12409.063189358903,3
24DES0088U,22.11572,-100.85501,651,0.05394127708594317,0,0.05394127708594308,0.05394127708594317,0.004176264373745309,22562.300176477278,2
24PES0141D,22.16255,-100.98103,651,0.2049796292759443,0,0.20497962927594401,0.2049796292759443,0.006072584290595748,122927.99400343646,5
24PES0220Q,22.19061,-101.00804,651,0.1360652966645066,346,0.1360652966645063,0.1360652966645066,0.006951075520338946,56568.90238825992,9
24PES0225L,22.14971,-100.97304,651,0.013589376644020426,0,0.013589376644020407,0.013589376644020426,0.0013871669910934233,3879.7572809243366,1
24EES0070U,22.1422,-100.97696,651,0.2525041808025283,0,0.2525041808025279,0.2525041808025283,0.006444665854712698,595711.2212559007,10
24EES0074Q,22.10699,-100.92538,651,0.18709710700373888,0,0.18709710700373866,0.18709710700373888,0.006153414349786122,659209.3197846793,10
24PES0240D,22.14996,-100.94834,651,0.010518395819793608,0,0.010518395819793601,0.010518395819793608,0.0014197594249224423,45242.53129789215,2
24EES0075P,22.20439,-100.96941,651,0.046303817907880115,0,0.04630381790788002,0.046303817907880115,0.003981292220276515,8030.241141916201,2
24PES0203Z,22.15658,-100.94711,651,0.2705244931882615,0,0.27052449318826116,0.2705244931882615,0.006338188822158173,199717.31514302804,5
24PES0183C,22.12952,-101.01918,651,0.6412850076829049,0,0.6412850076829042,0.6412850076829049,0.0061754285008912505,12023.336225888122,1
24ESN0004C,22.14925,-100.97289,651,0.01317417510982861,0,0.013174175109828597,0.01317417510982861,0.0018017936165009901,7929.607396363157,2
24PES0248W,22.13533,-100.97607000000001,651,0.00507038796210402,0,0.005070387962104016,0.00507038796210402,0.001324197591330822,6922.8902952934495,1
24PES0232V,22.12668,-100.93164,651,0.22887288278346982,0,0.2288728827834695,0.22887288278346982,0.0059849140706990005,37436.91906475178,2
24PES0250K,22.12757,-100.93253,651,0.0828817380698303,0,0.08288173806983015,0.0828817380698303,0.0034415722390720334,69122.11073230796,3
24PES0194I,22.14452,-100.97245,651,0.007036176055924035,0,0.007036176055924029,0.007036176055924035,0.0014340138511842254,4083.919266202516,1
24PES0236R,22.14049,-100.98192,651,0.2105268093028956,0,0.21052680930289544,0.2105268093028956,0.0047947165279767666,41571.23465890517,3
24PES0238P,22.12218,-100.9744,651,0.03810693984969063,323,0.0381069398496906,0.03810693984969063,0.0028533439628873098,29618.246631223963,6
24PES0038R,22.14315,-100.9733,651,0.13598666590485503,0,0.13598666590485495,0.13598666590485503,0.0038011370459584987,15249.92476600466,1
24PES0227J,22.15778,-100.96202,651,0.1409292751571438,0,0.14092927515714374,0.1409292751571438,0.005025897728294445,22169.715879732725,2
24PES0247X,22.15437,-100.89948,651,0.22550164638348968,0,0.2255016463834892,0.22550164638348968,0.00875004846376511,133079.54372581234,7
24PES0160S,22.14741,-100.97175,651,0.5146257014564153,0,0.5146257014564145,0.5146257014564153,0.006348337503625213,15657.202627885683,1
24PES0242B,22.16117,-101.04475,651,0.02809766196060891,10,0.028097661960608904,0.02809766196060891,0.004052874906406169,266.5311737581966,3
24PES0170Z,22.15002,-101.00739,651,0.014525209028547561,0,0.01452520902854754,0.014525209028547561,0.002147435169527026,429.17301260462807,1
24PES0133V,22.1498,-100.97522,651,0.04012073007781392,0,0.04012073007781385,0.04012073007781392,0.0037424619357823126,951.8140890491214,1
24PES0200C,22.14747,-101.00165,651,0.0213442896560782,0,0.021344289656078173,0.0213442896560782,0.0032597459559959435,11.794528156356522,1
24PES0239O,22.13118,-101.01382,651,0.038881522171426736,0,0.03888152217142668,0.038881522171426736,0.007126468798739642,13.286551143047284,2
24PES0245Z,22.14757,-100.99429,651,0.030830640614335166,0,0.030830640614335134,0.030830640614335166,0.004191726070802464,11.794528156356524,1
24PES0251J,22.20133,-101.00789,651,0.027019294512520907,0,0.027019294512520813,0.027019294512520907,0.0025694833547494737,331.6428941361273,1
